<?xml version="1.0" encoding="utf-8" ?>
<kml xmlns="http://www.opengis.net/kml/2.2">
<Document id="root_doc">
<Folder><name>chicago_nodes_new</name>
  <Placemark>
	<name>('Taylor', 'Throop')</name>
      <Point><coordinates>-87.6592195865,41.86937784</coordinates></Point>
  </Placemark>
  <Placemark>
	<name>('Jackson', 'Karlov')</name>
      <Point><coordinates>-87.72800169,41.8770571205</coordinates></Point>
  </Placemark>
  <Placemark>
	<name>('Foster', 'Monticello')</name>
      <Point><coordinates>-87.7197395915,41.97560499</coordinates></Point>
  </Placemark>
  <Placemark>
	<name>('Cermak/Blue Island', 'Ashland')</name>
      <Point><coordinates>-87.66617293,41.852483676</coordinates></Point>
  </Placemark>
  <Placemark>
	<name>('Clark', 'Albion')</name>
      <Point><coordinates>-87.67185699,42.001705362</coordinates></Point>
  </Placemark>
  <Placemark>
	<name>('Clark', 'Burton')</name>
      <Point><coordinates>-87.6315886585,41.9094198125</coordinates></Point>
  </Placemark>
  <Placemark>
	<name>('Ridge', 'Broadway/Bryn Mawr')</name>
      <Point><coordinates>-87.6603920735,41.983823027</coordinates></Point>
  </Placemark>
  <Placemark>
	<name>('Lincoln', 'Berwyn')</name>
      <Point><coordinates>-87.6925415005,41.9776855</coordinates></Point>
  </Placemark>
  <Placemark>
	<name>('California', 'Devon')</name>
      <Point><coordinates>-87.6997368645,41.99755954125</coordinates></Point>
  </Placemark>
  <Placemark>
	<name>('115th Street', 'Halsted')</name>
      <Point><coordinates>-87.64230104675,41.68514841</coordinates></Point>
  </Placemark>
  <Placemark>
	<name>('Racine', '60th Street')</name>
      <Point><coordinates>-87.65462288,41.785054859</coordinates></Point>
  </Placemark>
  <Placemark>
	<name>('Racine', '68th Street')</name>
      <Point><coordinates>-87.654248502,41.77052128</coordinates></Point>
  </Placemark>
  <Placemark>
	<name>('Michigan', '110th Street')</name>
      <Point><coordinates>-87.620779887,41.694589532</coordinates></Point>
  </Placemark>
  <Placemark>
	<name>('Iowa', 'Cicero')</name>
      <Point><coordinates>-87.7458375005,41.8968530005</coordinates></Point>
  </Placemark>
  <Placemark>
	<name>('Major', 'Archer')</name>
      <Point><coordinates>-87.7647061505,41.795345585</coordinates></Point>
  </Placemark>
  <Placemark>
	<name>('Surf', 'Broadway')</name>
      <Point><coordinates>-87.644234878,41.934936705</coordinates></Point>
  </Placemark>
  <Placemark>
	<name>('Northwest Hwy', 'Overhill')</name>
      <Point><coordinates>-87.818810595,42.004455292</coordinates></Point>
  </Placemark>
  <Placemark>
	<name>('Northwest Hwy', 'Niagara')</name>
      <Point><coordinates>-87.800730027,41.993399126</coordinates></Point>
  </Placemark>
  <Placemark>
	<name>('Pershing', 'Cicero')</name>
      <Point><coordinates>-87.743529818,41.822061387</coordinates></Point>
  </Placemark>
  <Placemark>
	<name>('King Drive', '90th Street')</name>
      <Point><coordinates>-87.6143657255,41.731037416</coordinates></Point>
  </Placemark>
  <Placemark>
	<name>('Jefferson Park Transit Center',)</name>
      <Point><coordinates>-87.7619511503333,41.9699525739167</coordinates></Point>
  </Placemark>
  <Placemark>
	<name>('S. Shore Drive', '77th Street')</name>
      <Point><coordinates>-87.5535364345,41.7570921</coordinates></Point>
  </Placemark>
  <Placemark>
	<name>('Cullom', 'Broadway')</name>
      <Point><coordinates>-87.654072,41.960039</coordinates></Point>
  </Placemark>
  <Placemark>
	<name>('Cermak', 'Wentworth')</name>
      <Point><coordinates>-87.632003039,41.852669969</coordinates></Point>
  </Placemark>
  <Placemark>
	<name>('Keystone (Blue Line)', 'Irving Park')</name>
      <Point><coordinates>-87.729039439,41.95374569</coordinates></Point>
  </Placemark>
  <Placemark>
	<name>('67th Street', 'East End')</name>
      <Point><coordinates>-87.583902465,41.773361134</coordinates></Point>
  </Placemark>
  <Placemark>
	<name>('Campbell', 'Jackson')</name>
      <Point><coordinates>-87.6887750855,41.8775223185</coordinates></Point>
  </Placemark>
  <Placemark>
	<name>('47th Street', 'Albany')</name>
      <Point><coordinates>-87.7014857115,41.808161921</coordinates></Point>
  </Placemark>
  <Placemark>
	<name>('Congress', 'Karlov')</name>
      <Point><coordinates>-87.72774701,41.874398682</coordinates></Point>
  </Placemark>
  <Placemark>
	<name>('Madison', 'Peoria')</name>
      <Point><coordinates>-87.6496573765,41.8817388745</coordinates></Point>
  </Placemark>
  <Placemark>
	<name>('Lawrence', 'Menard')</name>
      <Point><coordinates>-87.7725969445,41.9676934855</coordinates></Point>
  </Placemark>
  <Placemark>
	<name>('71st Street', 'Spaulding')</name>
      <Point><coordinates>-87.7051786445,41.7643323305</coordinates></Point>
  </Placemark>
  <Placemark>
	<name>('May', 'Roosevelt')</name>
      <Point><coordinates>-87.6549772085,41.867046558</coordinates></Point>
  </Placemark>
  <Placemark>
	<name>('Lawrence', 'Prospect')</name>
      <Point><coordinates>-87.831018474,41.966765166</coordinates></Point>
  </Placemark>
  <Placemark>
	<name>('Cottage Grove', '43rd Street')</name>
      <Point><coordinates>-87.6067065105,41.81672715675</coordinates></Point>
  </Placemark>
  <Placemark>
	<name>('87th Street', 'Albany')</name>
      <Point><coordinates>-87.699740444,41.735226754</coordinates></Point>
  </Placemark>
  <Placemark>
	<name>('131st Street', 'Rhodes')</name>
      <Point><coordinates>-87.6097295,41.6574145</coordinates></Point>
  </Placemark>
  <Placemark>
	<name>('4600 W Armitage',)</name>
      <Point><coordinates>-87.7418176805,41.9169888565</coordinates></Point>
  </Placemark>
  <Placemark>
	<name>('Central Street', 'Ridge')</name>
      <Point><coordinates>-87.683499287,42.064137467</coordinates></Point>
  </Placemark>
  <Placemark>
	<name>('Lawrence', 'Major')</name>
      <Point><coordinates>-87.7700228925,41.967733392</coordinates></Point>
  </Placemark>
  <Placemark>
	<name>('State', 'Huron')</name>
      <Point><coordinates>-87.6281505005,41.8948815</coordinates></Point>
  </Placemark>
  <Placemark>
	<name>('Melvina', 'Addison')</name>
      <Point><coordinates>-87.781355146,41.9457072925</coordinates></Point>
  </Placemark>
  <Placemark>
	<name>('Central Park', 'Belmont')</name>
      <Point><coordinates>-87.717364231,41.939212029</coordinates></Point>
  </Placemark>
  <Placemark>
	<name>('Hamlin', 'Chicago')</name>
      <Point><coordinates>-87.7211327065,41.895413934</coordinates></Point>
  </Placemark>
  <Placemark>
	<name>('California', 'Addison')</name>
      <Point><coordinates>-87.6980404613333,41.946560262</coordinates></Point>
  </Placemark>
  <Placemark>
	<name>('51st Street', 'Indiana')</name>
      <Point><coordinates>-87.621043712,41.8020339245</coordinates></Point>
  </Placemark>
  <Placemark>
	<name>('Archer', 'Cermak')</name>
      <Point><coordinates>-87.634793031,41.852875177</coordinates></Point>
  </Placemark>
  <Placemark>
	<name>('Michigan', '35th Street')</name>
      <Point><coordinates>-87.6235648765,41.8310371345</coordinates></Point>
  </Placemark>
  <Placemark>
	<name>('Keeler', 'Roosevelt')</name>
      <Point><coordinates>-87.7298858455,41.8661082815</coordinates></Point>
  </Placemark>
  <Placemark>
	<name>('Central', 'Belmont')</name>
      <Point><coordinates>-87.76650233175,41.93857707775</coordinates></Point>
  </Placemark>
  <Placemark>
	<name>('Menard', 'Grand')</name>
      <Point><coordinates>-87.7705811515,41.9196354795</coordinates></Point>
  </Placemark>
  <Placemark>
	<name>('Throop', 'Cermak')</name>
      <Point><coordinates>-87.658531562,41.8524382255</coordinates></Point>
  </Placemark>
  <Placemark>
	<name>('Michigan', '127th Street')</name>
      <Point><coordinates>-87.619784266,41.663544454</coordinates></Point>
  </Placemark>
  <Placemark>
	<name>('Oakley', 'Montrose')</name>
      <Point><coordinates>-87.6863345,41.961343</coordinates></Point>
  </Placemark>
  <Placemark>
	<name>('Wood', 'Grand')</name>
      <Point><coordinates>-87.6720018605,41.8909137445</coordinates></Point>
  </Placemark>
  <Placemark>
	<name>('51st Street', 'King Drive')</name>
      <Point><coordinates>-87.6160578292,41.8021218784</coordinates></Point>
  </Placemark>
  <Placemark>
	<name>('Sacramento', '59th Street')</name>
      <Point><coordinates>-87.6982524235,41.7863302425</coordinates></Point>
  </Placemark>
  <Placemark>
	<name>('Ashland', 'Chicago')</name>
      <Point><coordinates>-87.6672823445,41.896083206</coordinates></Point>
  </Placemark>
  <Placemark>
	<name>('Lincoln/Fullerton', 'Halsted')</name>
      <Point><coordinates>-87.648768326,41.9253916695</coordinates></Point>
  </Placemark>
  <Placemark>
	<name>('Pulaski', 'Addison')</name>
      <Point><coordinates>-87.727286662,41.9463810865</coordinates></Point>
  </Placemark>
  <Placemark>
	<name>('79th Street', 'Colfax')</name>
      <Point><coordinates>-87.5612394105,41.751796579</coordinates></Point>
  </Placemark>
  <Placemark>
	<name>('Belmont', 'Mason')</name>
      <Point><coordinates>-87.774856554,41.9384719655</coordinates></Point>
  </Placemark>
  <Placemark>
	<name>('Belmont', 'Lamon')</name>
      <Point><coordinates>-87.749116896,41.938789581</coordinates></Point>
  </Placemark>
  <Placemark>
	<name>('Kenosha', 'Belmont')</name>
      <Point><coordinates>-87.734161534,41.938931014</coordinates></Point>
  </Placemark>
  <Placemark>
	<name>('79th Street Terminal', 'Halsted')</name>
      <Point><coordinates>-87.6436913985,41.7497494515</coordinates></Point>
  </Placemark>
  <Placemark>
	<name>('Central Street', 'Walnut')</name>
      <Point><coordinates>-87.7046982485,42.0643533145</coordinates></Point>
  </Placemark>
  <Placemark>
	<name>('Meade', 'North Ave')</name>
      <Point><coordinates>-87.777470045,41.909295755</coordinates></Point>
  </Placemark>
  <Placemark>
	<name>('Washtenaw', 'Foster')</name>
      <Point><coordinates>-87.6964560205,41.975853093</coordinates></Point>
  </Placemark>
  <Placemark>
	<name>('Hermosa', 'Monterey')</name>
      <Point><coordinates>-87.6668736105,41.6907891205</coordinates></Point>
  </Placemark>
  <Placemark>
	<name>('Hale', 'Monterey')</name>
      <Point><coordinates>-87.670439394,41.691995338</coordinates></Point>
  </Placemark>
  <Placemark>
	<name>('61st Street', 'Langley')</name>
      <Point><coordinates>-87.608460641,41.784009868</coordinates></Point>
  </Placemark>
  <Placemark>
	<name>('3000 W 103rd Street',)</name>
      <Point><coordinates>-87.696270808,41.706351922</coordinates></Point>
  </Placemark>
  <Placemark>
	<name>('Washtenaw', 'Belmont')</name>
      <Point><coordinates>-87.695242911,41.9394391305</coordinates></Point>
  </Placemark>
  <Placemark>
	<name>('59th Street', 'Laflin')</name>
      <Point><coordinates>-87.6619193145,41.7867839965</coordinates></Point>
  </Placemark>
  <Placemark>
	<name>('Indiana', '103rd Street')</name>
      <Point><coordinates>-87.6186458715,41.7072433095</coordinates></Point>
  </Placemark>
  <Placemark>
	<name>('Paulina', 'Belmont')</name>
      <Point><coordinates>-87.6711055515,41.939667113</coordinates></Point>
  </Placemark>
  <Placemark>
	<name>('51st Street', 'Wentworth')</name>
      <Point><coordinates>-87.630443834,41.801883512</coordinates></Point>
  </Placemark>
  <Placemark>
	<name>('Canal', '31st Street')</name>
      <Point><coordinates>-87.6376352105,41.838165642</coordinates></Point>
  </Placemark>
  <Placemark>
	<name>('87th Street', 'Morgan')</name>
      <Point><coordinates>-87.648461444,41.735992665</coordinates></Point>
  </Placemark>
  <Placemark>
	<name>('Wacker', 'State')</name>
      <Point><coordinates>-87.628144407,41.887026842</coordinates></Point>
  </Placemark>
  <Placemark>
	<name>('Montrose', 'Menard')</name>
      <Point><coordinates>-87.7721283395,41.9604166945</coordinates></Point>
  </Placemark>
  <Placemark>
	<name>('Pulaski', 'Wellington')</name>
      <Point><coordinates>-87.727097276,41.9354483185</coordinates></Point>
  </Placemark>
  <Placemark>
	<name>('36th Street', 'Kedzie')</name>
      <Point><coordinates>-87.704450227,41.82808024675</coordinates></Point>
  </Placemark>
  <Placemark>
	<name>('Milwaukee', 'Berteau')</name>
      <Point><coordinates>-87.7512045075,41.956891895</coordinates></Point>
  </Placemark>
  <Placemark>
	<name>('83rd Street', 'Halsted')</name>
      <Point><coordinates>-87.643815,41.743385</coordinates></Point>
  </Placemark>
  <Placemark>
	<name>('State', '43rd Street')</name>
      <Point><coordinates>-87.62625675675,41.8165707465</coordinates></Point>
  </Placemark>
  <Placemark>
	<name>('California', 'Madison')</name>
      <Point><coordinates>-87.6962901665,41.881077151</coordinates></Point>
  </Placemark>
  <Placemark>
	<name>('63rd Street', 'King Drive')</name>
      <Point><coordinates>-87.615693661,41.779958468</coordinates></Point>
  </Placemark>
  <Placemark>
	<name>('Clinton', 'Madison')</name>
      <Point><coordinates>-87.6412734325,41.881857564</coordinates></Point>
  </Placemark>
  <Placemark>
	<name>('Irving Park', 'Lamon')</name>
      <Point><coordinates>-87.7498790735,41.9533980295</coordinates></Point>
  </Placemark>
  <Placemark>
	<name>('Garfield', 'Racine')</name>
      <Point><coordinates>-87.6548817755,41.793964848</coordinates></Point>
  </Placemark>
  <Placemark>
	<name>('Madison', 'Lockwood')</name>
      <Point><coordinates>-87.757812964,41.88034648</coordinates></Point>
  </Placemark>
  <Placemark>
	<name>('Diversey', 'Harlem')</name>
      <Point><coordinates>-87.806501421,41.930986787</coordinates></Point>
  </Placemark>
  <Placemark>
	<name>('Austin', 'Wellington')</name>
      <Point><coordinates>-87.7760966755,41.9349650175</coordinates></Point>
  </Placemark>
  <Placemark>
	<name>('Ashland', '57th Street')</name>
      <Point><coordinates>-87.6644878095,41.7903542605</coordinates></Point>
  </Placemark>
  <Placemark>
	<name>('76th Street', 'Racine')</name>
      <Point><coordinates>-87.6538840265,41.7563441845</coordinates></Point>
  </Placemark>
  <Placemark>
	<name>('Hamlin', 'North Ave')</name>
      <Point><coordinates>-87.7215080655,41.909988262</coordinates></Point>
  </Placemark>
  <Placemark>
	<name>('Central Park', 'Jackson')</name>
      <Point><coordinates>-87.71567335,41.8770792745</coordinates></Point>
  </Placemark>
  <Placemark>
	<name>('Irving Park', 'Damen/Lincoln')</name>
      <Point><coordinates>-87.678729412,41.9541623925</coordinates></Point>
  </Placemark>
  <Placemark>
	<name>('63rd Street', 'Keeler')</name>
      <Point><coordinates>-87.727839062,41.778606472</coordinates></Point>
  </Placemark>
  <Placemark>
	<name>('Loomis', '119th Street')</name>
      <Point><coordinates>-87.6564873945,41.677605117</coordinates></Point>
  </Placemark>
  <Placemark>
	<name>('Narragansett', 'Addison')</name>
      <Point><coordinates>-87.78630449325,41.9456671765</coordinates></Point>
  </Placemark>
  <Placemark>
	<name>('Monroe', 'Dearborn')</name>
      <Point><coordinates>-87.629285,41.880948</coordinates></Point>
  </Placemark>
  <Placemark>
	<name>('Armitage', 'Halsted')</name>
      <Point><coordinates>-87.64851586225,41.91817601675</coordinates></Point>
  </Placemark>
  <Placemark>
	<name>('79th Street', 'Wood')</name>
      <Point><coordinates>-87.66840224,41.750302242</coordinates></Point>
  </Placemark>
  <Placemark>
	<name>('Damen', '35th Street')</name>
      <Point><coordinates>-87.675275999,41.8303910005</coordinates></Point>
  </Placemark>
  <Placemark>
	<name>('79th Street', 'Indiana')</name>
      <Point><coordinates>-87.6197136015,41.7510311935</coordinates></Point>
  </Placemark>
  <Placemark>
	<name>('111th Street', 'Michigan')</name>
      <Point><coordinates>-87.62125887,41.6926065675</coordinates></Point>
  </Placemark>
  <Placemark>
	<name>('Madison', 'Menard')</name>
      <Point><coordinates>-87.7697913855,41.8801766635</coordinates></Point>
  </Placemark>
  <Placemark>
	<name>('S. Shore Drive', '79th Street')</name>
      <Point><coordinates>-87.548267785,41.752156561</coordinates></Point>
  </Placemark>
  <Placemark>
	<name>('47th Street', 'Wallace')</name>
      <Point><coordinates>-87.640646227,41.8089492795</coordinates></Point>
  </Placemark>
  <Placemark>
	<name>('71st Street', 'King Drive')</name>
      <Point><coordinates>-87.61525240025,41.76569915225</coordinates></Point>
  </Placemark>
  <Placemark>
	<name>('111th Street', 'Indiana')</name>
      <Point><coordinates>-87.618259651,41.6926423165</coordinates></Point>
  </Placemark>
  <Placemark>
	<name>('Morse', 'Sheridan')</name>
      <Point><coordinates>-87.661708725,42.0079375426667</coordinates></Point>
  </Placemark>
  <Placemark>
	<name>('Grand', 'Homan')</name>
      <Point><coordinates>-87.71160155425,41.9001423245</coordinates></Point>
  </Placemark>
  <Placemark>
	<name>('Cottage Grove', '60th Street')</name>
      <Point><coordinates>-87.60589366175,41.7858244345</coordinates></Point>
  </Placemark>
  <Placemark>
	<name>('Ashland', 'Webster')</name>
      <Point><coordinates>-87.6685861355,41.92124235</coordinates></Point>
  </Placemark>
  <Placemark>
	<name>('LaSalle', 'Huron')</name>
      <Point><coordinates>-87.6326907945,41.8947394245</coordinates></Point>
  </Placemark>
  <Placemark>
	<name>('Sedgwick', 'North Avenue')</name>
      <Point><coordinates>-87.638513202,41.910960737</coordinates></Point>
  </Placemark>
  <Placemark>
	<name>('63rd Street', 'Stony Island')</name>
      <Point><coordinates>-87.5865236396667,41.7804690556667</coordinates></Point>
  </Placemark>
  <Placemark>
	<name>('Damen', '83rd Street')</name>
      <Point><coordinates>-87.6729444285,41.7428896895</coordinates></Point>
  </Placemark>
  <Placemark>
	<name>('107th Street', 'Halsted')</name>
      <Point><coordinates>-87.6426100415,41.6994162105</coordinates></Point>
  </Placemark>
  <Placemark>
	<name>('Ashland', '43rd Street')</name>
      <Point><coordinates>-87.6650784715,41.8158662555</coordinates></Point>
  </Placemark>
  <Placemark>
	<name>('Ashland', 'Wrightwood')</name>
      <Point><coordinates>-87.668270416,41.928779794</coordinates></Point>
  </Placemark>
  <Placemark>
	<name>('87th Street', 'Drexel')</name>
      <Point><coordinates>-87.602498533,41.736610301</coordinates></Point>
  </Placemark>
  <Placemark>
	<name>('Dauphin/Ingleside', '87th Street')</name>
      <Point><coordinates>-87.601363679,41.7367032805</coordinates></Point>
  </Placemark>
  <Placemark>
	<name>('Long', '65th Street')</name>
      <Point><coordinates>-87.756658826,41.774489709</coordinates></Point>
  </Placemark>
  <Placemark>
	<name>('Lawrence', 'Lawndale')</name>
      <Point><coordinates>-87.7206972425,41.968305887</coordinates></Point>
  </Placemark>
  <Placemark>
	<name>('61st Street', 'Ellis')</name>
      <Point><coordinates>-87.6011434695,41.7841097675</coordinates></Point>
  </Placemark>
  <Placemark>
	<name>('900 W Roosevelt',)</name>
      <Point><coordinates>-87.649418493,41.8671126615</coordinates></Point>
  </Placemark>
  <Placemark>
	<name>('Montrose', 'Winchester')</name>
      <Point><coordinates>-87.677485863,41.9614715385</coordinates></Point>
  </Placemark>
  <Placemark>
	<name>('Anthony', 'Stony Island')</name>
      <Point><coordinates>-87.5856803295,41.7488524215</coordinates></Point>
  </Placemark>
  <Placemark>
	<name>('102nd Street', 'Commercial')</name>
      <Point><coordinates>-87.552347729,41.7098842275</coordinates></Point>
  </Placemark>
  <Placemark>
	<name>('Yates', 'Exchange')</name>
      <Point><coordinates>-87.566420389,41.765663033</coordinates></Point>
  </Placemark>
  <Placemark>
	<name>('Austin', 'Fulton/Pleasant')</name>
      <Point><coordinates>-87.7748278135,41.885524009</coordinates></Point>
  </Placemark>
  <Placemark>
	<name>('Lacrosse', 'Oakton')</name>
      <Point><coordinates>-87.7488265405,42.026270155</coordinates></Point>
  </Placemark>
  <Placemark>
	<name>('Ashland Orange Line Station',)</name>
      <Point><coordinates>-87.665356274,41.8390800203333</coordinates></Point>
  </Placemark>
  <Placemark>
	<name>('Diversey', 'Mildred')</name>
      <Point><coordinates>-87.651300209,41.932696351</coordinates></Point>
  </Placemark>
  <Placemark>
	<name>('31st Street', 'Halsted')</name>
      <Point><coordinates>-87.6462749775,41.83805107475</coordinates></Point>
  </Placemark>
  <Placemark>
	<name>('26th Street', 'Wentworth')</name>
      <Point><coordinates>-87.6318290745,41.8452655105</coordinates></Point>
  </Placemark>
  <Placemark>
	<name>('Garfield', 'Damen')</name>
      <Point><coordinates>-87.6742883513333,41.7937438488333</coordinates></Point>
  </Placemark>
  <Placemark>
	<name>('Kostner', 'Fullerton')</name>
      <Point><coordinates>-87.7365775965,41.924381811</coordinates></Point>
  </Placemark>
  <Placemark>
	<name>('State (Red Line)', 'Chicago')</name>
      <Point><coordinates>-87.6279694385,41.896677272</coordinates></Point>
  </Placemark>
  <Placemark>
	<name>('Hamlin', 'Grand')</name>
      <Point><coordinates>-87.7217077575,41.9042924095</coordinates></Point>
  </Placemark>
  <Placemark>
	<name>('Menard', 'Belmont')</name>
      <Point><coordinates>-87.771197773,41.93851465</coordinates></Point>
  </Placemark>
  <Placemark>
	<name>('Montrose', 'Western')</name>
      <Point><coordinates>-87.68854822875,41.96139045575</coordinates></Point>
  </Placemark>
  <Placemark>
	<name>('Lunt', 'Clark')</name>
      <Point><coordinates>-87.674137514,42.0089831535</coordinates></Point>
  </Placemark>
  <Placemark>
	<name>('State', 'Ontario')</name>
      <Point><coordinates>-87.6281915553333,41.8933071853333</coordinates></Point>
  </Placemark>
  <Placemark>
	<name>('55th Street', 'Keeler')</name>
      <Point><coordinates>-87.7278808415,41.793162587</coordinates></Point>
  </Placemark>
  <Placemark>
	<name>('Avenue O', '106th Street')</name>
      <Point><coordinates>-87.540119778,41.7027473355</coordinates></Point>
  </Placemark>
  <Placemark>
	<name>('Muskegon', '106th Street')</name>
      <Point><coordinates>-87.5548099,41.7027669845</coordinates></Point>
  </Placemark>
  <Placemark>
	<name>('Pershing', 'Halsted')</name>
      <Point><coordinates>-87.645955396,41.823347119</coordinates></Point>
  </Placemark>
  <Placemark>
	<name>('47th Street', 'Halsted')</name>
      <Point><coordinates>-87.645682822,41.8088852885</coordinates></Point>
  </Placemark>
  <Placemark>
	<name>('Pulaski', 'Foster')</name>
      <Point><coordinates>-87.7282448705,41.97552527825</coordinates></Point>
  </Placemark>
  <Placemark>
	<name>('71st Street', 'Wentworth')</name>
      <Point><coordinates>-87.6297549995,41.765439</coordinates></Point>
  </Placemark>
  <Placemark>
	<name>('Pulaski', 'Harrison (Blue Line)')</name>
      <Point><coordinates>-87.725312899,41.873373043</coordinates></Point>
  </Placemark>
  <Placemark>
	<name>('Racine', '18th Street')</name>
      <Point><coordinates>-87.65659582,41.857948466</coordinates></Point>
  </Placemark>
  <Placemark>
	<name>('Jeffery', '93rd Street')</name>
      <Point><coordinates>-87.57544884525,41.7261257805</coordinates></Point>
  </Placemark>
  <Placemark>
	<name>('Clarendon', 'Irving Park')</name>
      <Point><coordinates>-87.649461303,41.9545645545</coordinates></Point>
  </Placemark>
  <Placemark>
	<name>('119th Street', 'Halsted')</name>
      <Point><coordinates>-87.64205192475,41.67780545125</coordinates></Point>
  </Placemark>
  <Placemark>
	<name>('Pershing', 'Vincennes')</name>
      <Point><coordinates>-87.6128536535,41.823881836</coordinates></Point>
  </Placemark>
  <Placemark>
	<name>('Irving Park', 'Kimball')</name>
      <Point><coordinates>-87.71289651175,41.95386760075</coordinates></Point>
  </Placemark>
  <Placemark>
	<name>('California', 'Foster')</name>
      <Point><coordinates>-87.69884285525,41.975903212</coordinates></Point>
  </Placemark>
  <Placemark>
	<name>('Montrose', 'Long')</name>
      <Point><coordinates>-87.7622836085,41.960557879</coordinates></Point>
  </Placemark>
  <Placemark>
	<name>('Diversey', 'Kedzie')</name>
      <Point><coordinates>-87.7073783273333,41.931963061</coordinates></Point>
  </Placemark>
  <Placemark>
	<name>('87th Street', 'Dobson')</name>
      <Point><coordinates>-87.599128689,41.7367230885</coordinates></Point>
  </Placemark>
  <Placemark>
	<name>('Madison', 'Kostner')</name>
      <Point><coordinates>-87.7354774115,41.8806122565</coordinates></Point>
  </Placemark>
  <Placemark>
	<name>('Sacramento', 'Devon')</name>
      <Point><coordinates>-87.7045087085,41.9974756835</coordinates></Point>
  </Placemark>
  <Placemark>
	<name>('Madison', 'Laramie')</name>
      <Point><coordinates>-87.75517456725,41.880363214</coordinates></Point>
  </Placemark>
  <Placemark>
	<name>('69th Street', 'Halsted')</name>
      <Point><coordinates>-87.6444900066,41.7687652852</coordinates></Point>
  </Placemark>
  <Placemark>
	<name>('Foster', 'Cicero')</name>
      <Point><coordinates>-87.7479883715,41.97533188525</coordinates></Point>
  </Placemark>
  <Placemark>
	<name>('51st Street', 'State')</name>
      <Point><coordinates>-87.62589560525,41.80193459825</coordinates></Point>
  </Placemark>
  <Placemark>
	<name>('Wood', 'Polk')</name>
      <Point><coordinates>-87.671469482,41.8715451165</coordinates></Point>
  </Placemark>
  <Placemark>
	<name>('Diversey Brown Line Station',)</name>
      <Point><coordinates>-87.653291267,41.9326464735</coordinates></Point>
  </Placemark>
  <Placemark>
	<name>('Lawndale', '79th Street')</name>
      <Point><coordinates>-87.714232297,41.749624471</coordinates></Point>
  </Placemark>
  <Placemark>
	<name>('Clark', 'Roosevelt')</name>
      <Point><coordinates>-87.630582287,41.8673633395</coordinates></Point>
  </Placemark>
  <Placemark>
	<name>('47th Street', 'Damen')</name>
      <Point><coordinates>-87.675092956,41.808504146</coordinates></Point>
  </Placemark>
  <Placemark>
	<name>('Homan', 'Chicago')</name>
      <Point><coordinates>-87.7114290705,41.8955067735</coordinates></Point>
  </Placemark>
  <Placemark>
	<name>('71st Street', 'Yates')</name>
      <Point><coordinates>-87.5667546685,41.7660833785</coordinates></Point>
  </Placemark>
  <Placemark>
	<name>('Kedzie', 'Devon')</name>
      <Point><coordinates>-87.709119581,41.9973926575</coordinates></Point>
  </Placemark>
  <Placemark>
	<name>('Laramie', 'Addison')</name>
      <Point><coordinates>-87.7568943915,41.9459601945</coordinates></Point>
  </Placemark>
  <Placemark>
	<name>('Wells', 'Division')</name>
      <Point><coordinates>-87.634790083,41.9038509705</coordinates></Point>
  </Placemark>
  <Placemark>
	<name>('Jackson', 'Keeler')</name>
      <Point><coordinates>-87.7304243655,41.877020134</coordinates></Point>
  </Placemark>
  <Placemark>
	<name>('87th Street', 'Halsted')</name>
      <Point><coordinates>-87.64360490575,41.7358729015</coordinates></Point>
  </Placemark>
  <Placemark>
	<name>('Wood', 'Division')</name>
      <Point><coordinates>-87.672135862,41.9032551965</coordinates></Point>
  </Placemark>
  <Placemark>
	<name>('California', '59th Street')</name>
      <Point><coordinates>-87.6935954705,41.7864133045</coordinates></Point>
  </Placemark>
  <Placemark>
	<name>('69th Street', 'King Drive')</name>
      <Point><coordinates>-87.61535708575,41.76939458575</coordinates></Point>
  </Placemark>
  <Placemark>
	<name>('Oakley', 'Harrison')</name>
      <Point><coordinates>-87.6837509745,41.8739347615</coordinates></Point>
  </Placemark>
  <Placemark>
	<name>('Lexington (Blue Line)', 'Cicero')</name>
      <Point><coordinates>-87.744822,41.871076</coordinates></Point>
  </Placemark>
  <Placemark>
	<name>('Ewing', '106th Street')</name>
      <Point><coordinates>-87.535392746,41.70282295825</coordinates></Point>
  </Placemark>
  <Placemark>
	<name>('Argyle', 'Damen')</name>
      <Point><coordinates>-87.6792925,41.9723875</coordinates></Point>
  </Placemark>
  <Placemark>
	<name>('Narragansett', 'Grand')</name>
      <Point><coordinates>-87.78528588475,41.92258782825</coordinates></Point>
  </Placemark>
  <Placemark>
	<name>('Pulaski', '14th Street')</name>
      <Point><coordinates>-87.725055522,41.8625370705</coordinates></Point>
  </Placemark>
  <Placemark>
	<name>('Hirsch', 'Western')</name>
      <Point><coordinates>-87.6871222675,41.906661711</coordinates></Point>
  </Placemark>
  <Placemark>
	<name>('Damen', '87th Street Terminal')</name>
      <Point><coordinates>-87.672983244,41.736234579</coordinates></Point>
  </Placemark>
  <Placemark>
	<name>('Mies Van Der Rohe', 'Chestnut')</name>
      <Point><coordinates>-87.622673072,41.89846025</coordinates></Point>
  </Placemark>
  <Placemark>
	<name>('Foster', 'Jewel Prking Ent')</name>
      <Point><coordinates>-87.729345839,41.975600106</coordinates></Point>
  </Placemark>
  <Placemark>
	<name>('Erie', 'Halsted')</name>
      <Point><coordinates>-87.6476742665,41.893521589</coordinates></Point>
  </Placemark>
  <Placemark>
	<name>('Northwest Hwy', 'Nagle')</name>
      <Point><coordinates>-87.78778725775,41.9860255095</coordinates></Point>
  </Placemark>
  <Placemark>
	<name>('79th Street', 'Western')</name>
      <Point><coordinates>-87.6828395,41.7501005005</coordinates></Point>
  </Placemark>
  <Placemark>
	<name>('4200 S Wentworth',)</name>
      <Point><coordinates>-87.631253,41.81805</coordinates></Point>
  </Placemark>
  <Placemark>
	<name>('27th Street', 'Wentworth')</name>
      <Point><coordinates>-87.631941959,41.844130739</coordinates></Point>
  </Placemark>
  <Placemark>
	<name>('Wells', '52nd Street')</name>
      <Point><coordinates>-87.632012001,41.800185</coordinates></Point>
  </Placemark>
  <Placemark>
	<name>('31st Street', 'Morgan')</name>
      <Point><coordinates>-87.6512034915,41.8379686535</coordinates></Point>
  </Placemark>
  <Placemark>
	<name>('Rockwell', '47th Street')</name>
      <Point><coordinates>-87.6893188995,41.808359389</coordinates></Point>
  </Placemark>
  <Placemark>
	<name>('Laramie', 'Belmont')</name>
      <Point><coordinates>-87.7564328785,41.93870911</coordinates></Point>
  </Placemark>
  <Placemark>
	<name>('Western', '18th Street')</name>
      <Point><coordinates>-87.685662608,41.857218147</coordinates></Point>
  </Placemark>
  <Placemark>
	<name>('63rd Street', 'Damen')</name>
      <Point><coordinates>-87.6740008565,41.77931248275</coordinates></Point>
  </Placemark>
  <Placemark>
	<name>('Clark', 'Irving Park')</name>
      <Point><coordinates>-87.662307702,41.95447608275</coordinates></Point>
  </Placemark>
  <Placemark>
	<name>('Pulaski', 'Jackson')</name>
      <Point><coordinates>-87.7255536085,41.87714102275</coordinates></Point>
  </Placemark>
  <Placemark>
	<name>('71st Street', 'Halsted')</name>
      <Point><coordinates>-87.6443978085,41.765218806</coordinates></Point>
  </Placemark>
  <Placemark>
	<name>('Laramie', 'Augusta')</name>
      <Point><coordinates>-87.7556785,41.8985815005</coordinates></Point>
  </Placemark>
  <Placemark>
	<name>('63rd Street', '74th Avenue')</name>
      <Point><coordinates>-87.805750665,41.777161369</coordinates></Point>
  </Placemark>
  <Placemark>
	<name>('111th Street', 'Spaulding')</name>
      <Point><coordinates>-87.7033311105,41.691529297</coordinates></Point>
  </Placemark>
  <Placemark>
	<name>('Lawndale', '71st Street')</name>
      <Point><coordinates>-87.714963489,41.764196484</coordinates></Point>
  </Placemark>
  <Placemark>
	<name>('Lakewood', 'Devon')</name>
      <Point><coordinates>-87.6630522135,41.9981650045</coordinates></Point>
  </Placemark>
  <Placemark>
	<name>('75th Street', 'Eberhart')</name>
      <Point><coordinates>-87.6126583705,41.758452313</coordinates></Point>
  </Placemark>
  <Placemark>
	<name>('Lakewood', 'Belmont')</name>
      <Point><coordinates>-87.6612421185,41.9397675615</coordinates></Point>
  </Placemark>
  <Placemark>
	<name>('Kilbourn', 'Belmont')</name>
      <Point><coordinates>-87.7395150475,41.9389041525</coordinates></Point>
  </Placemark>
  <Placemark>
	<name>('74th Street', 'Parnell')</name>
      <Point><coordinates>-87.63853236,41.7598349655</coordinates></Point>
  </Placemark>
  <Placemark>
	<name>('Leamington', '63rd Street')</name>
      <Point><coordinates>-87.750851588,41.7782538005</coordinates></Point>
  </Placemark>
  <Placemark>
	<name>('71st Street', 'Eberhart')</name>
      <Point><coordinates>-87.61281322,41.7657625935</coordinates></Point>
  </Placemark>
  <Placemark>
	<name>('Malta', '103rd Street')</name>
      <Point><coordinates>-87.656980723,41.706830189</coordinates></Point>
  </Placemark>
  <Placemark>
	<name>('Kostner', 'Addison')</name>
      <Point><coordinates>-87.737244172,41.946247499</coordinates></Point>
  </Placemark>
  <Placemark>
	<name>('Oriole (76th Avenue)', 'Belmont')</name>
      <Point><coordinates>-87.8164861845,41.937925412</coordinates></Point>
  </Placemark>
  <Placemark>
	<name>('Oakley', '103rd Street')</name>
      <Point><coordinates>-87.679875483,41.706450183</coordinates></Point>
  </Placemark>
  <Placemark>
	<name>('Jackson', 'Lotus')</name>
      <Point><coordinates>-87.761495743,41.876562559</coordinates></Point>
  </Placemark>
  <Placemark>
	<name>('Lunt', 'Glenwood')</name>
      <Point><coordinates>-87.666125291,42.009170975</coordinates></Point>
  </Placemark>
  <Placemark>
	<name>('Springfield', '71st Street')</name>
      <Point><coordinates>-87.719854001,41.7641095</coordinates></Point>
  </Placemark>
  <Placemark>
	<name>('Springfield', '16th Street')</name>
      <Point><coordinates>-87.722443124,41.858896274</coordinates></Point>
  </Placemark>
  <Placemark>
	<name>('Madison', 'Lamon')</name>
      <Point><coordinates>-87.747518499,41.880570589</coordinates></Point>
  </Placemark>
  <Placemark>
	<name>('Western', '119th Street')</name>
      <Point><coordinates>-87.680306686,41.677140698</coordinates></Point>
  </Placemark>
  <Placemark>
	<name>('Charles', '103rd Street')</name>
      <Point><coordinates>-87.658656186,41.7067451365</coordinates></Point>
  </Placemark>
  <Placemark>
	<name>('California', 'Berwyn')</name>
      <Point><coordinates>-87.698977,41.9776520005</coordinates></Point>
  </Placemark>
  <Placemark>
	<name>('5200 S S Hyde Park',)</name>
      <Point><coordinates>-87.584521232,41.800939774</coordinates></Point>
  </Placemark>
  <Placemark>
	<name>('61st Street', 'Racine')</name>
      <Point><coordinates>-87.6545983595,41.7832404895</coordinates></Point>
  </Placemark>
  <Placemark>
	<name>('Lee', 'Dodge')</name>
      <Point><coordinates>-87.699183328,42.035640527</coordinates></Point>
  </Placemark>
  <Placemark>
	<name>('Haft', 'Nagle')</name>
      <Point><coordinates>-87.787430958,41.995149847</coordinates></Point>
  </Placemark>
  <Placemark>
	<name>('Pulaski Pink Line Station',)</name>
      <Point><coordinates>-87.7248005395,41.8537798525</coordinates></Point>
  </Placemark>
  <Placemark>
	<name>('Archer', '34th Street')</name>
      <Point><coordinates>-87.6739070315,41.8326841595</coordinates></Point>
  </Placemark>
  <Placemark>
	<name>('66th Street', 'Ashland')</name>
      <Point><coordinates>-87.6640820705,41.7740362385</coordinates></Point>
  </Placemark>
  <Placemark>
	<name>('Madison', 'Skokie Blvd')</name>
      <Point><coordinates>-87.7473459855,42.0315829575</coordinates></Point>
  </Placemark>
  <Placemark>
	<name>('Montvale', 'Vincennes')</name>
      <Point><coordinates>-87.665636872,41.688358336</coordinates></Point>
  </Placemark>
  <Placemark>
	<name>('56th Street', 'Kedzie')</name>
      <Point><coordinates>-87.703495983,41.7916855885</coordinates></Point>
  </Placemark>
  <Placemark>
	<name>('Aberdeen', '115th Street')</name>
      <Point><coordinates>-87.649435746,41.684990471</coordinates></Point>
  </Placemark>
  <Placemark>
	<name>('Seminary', 'Belmont')</name>
      <Point><coordinates>-87.6565288525,41.9398693405</coordinates></Point>
  </Placemark>
  <Placemark>
	<name>('Belmont', 'New England')</name>
      <Point><coordinates>-87.798131275,41.9381235595</coordinates></Point>
  </Placemark>
  <Placemark>
	<name>('1500 E 95th Street',)</name>
      <Point><coordinates>-87.587899101,41.7222888875</coordinates></Point>
  </Placemark>
  <Placemark>
	<name>('Lawndale', 'Armitage')</name>
      <Point><coordinates>-87.719212838,41.917252255</coordinates></Point>
  </Placemark>
  <Placemark>
	<name>('Oakley', '47th Street')</name>
      <Point><coordinates>-87.6819815315,41.808437899</coordinates></Point>
  </Placemark>
  <Placemark>
	<name>('Lawrence', 'Octavia')</name>
      <Point><coordinates>-87.8095567555,41.967182773</coordinates></Point>
  </Placemark>
  <Placemark>
	<name>('Pershing', 'Francisco')</name>
      <Point><coordinates>-87.69708844,41.822735841</coordinates></Point>
  </Placemark>
  <Placemark>
	<name>('75th Street', 'Exchange')</name>
      <Point><coordinates>-87.559562048,41.759289979</coordinates></Point>
  </Placemark>
  <Placemark>
	<name>('Jackson', 'Albany')</name>
      <Point><coordinates>-87.703552845,41.8773489115</coordinates></Point>
  </Placemark>
  <Placemark>
	<name>('Knox', 'Belmont')</name>
      <Point><coordinates>-87.743293218,41.938805487</coordinates></Point>
  </Placemark>
  <Placemark>
	<name>('Diversey', 'Seminary')</name>
      <Point><coordinates>-87.6564481645,41.932610327</coordinates></Point>
  </Placemark>
  <Placemark>
	<name>('Brandon', '91st Street')</name>
      <Point><coordinates>-87.5469193295,41.7301064265</coordinates></Point>
  </Placemark>
  <Placemark>
	<name>('Lawndale', '115th Street')</name>
      <Point><coordinates>-87.712914154,41.6840873875</coordinates></Point>
  </Placemark>
  <Placemark>
	<name>('Austin', 'Fillmore')</name>
      <Point><coordinates>-87.774087345,41.867341277</coordinates></Point>
  </Placemark>
  <Placemark>
	<name>('Princeton', 'Root')</name>
      <Point><coordinates>-87.633669853,41.8190664865</coordinates></Point>
  </Placemark>
  <Placemark>
	<name>('Church', 'Maple')</name>
      <Point><coordinates>-87.684873193,42.0485304285</coordinates></Point>
  </Placemark>
  <Placemark>
	<name>('111th Street', 'Union')</name>
      <Point><coordinates>-87.639959833,41.692384675</coordinates></Point>
  </Placemark>
  <Placemark>
	<name>('4700 W Old Orchard Rd',)</name>
      <Point><coordinates>-87.744729656,42.062315416</coordinates></Point>
  </Placemark>
  <Placemark>
	<name>('Washtenaw', 'Harrison')</name>
      <Point><coordinates>-87.6936790005,41.8738025005</coordinates></Point>
  </Placemark>
  <Placemark>
	<name>('Langley', '75th Street')</name>
      <Point><coordinates>-87.607838114,41.7585393495</coordinates></Point>
  </Placemark>
  <Placemark>
	<name>('Overhill', 'Addison')</name>
      <Point><coordinates>-87.819586674,41.9452277895</coordinates></Point>
  </Placemark>
  <Placemark>
	<name>('87th Street', 'Escanaba')</name>
      <Point><coordinates>-87.55398052,41.7373529735</coordinates></Point>
  </Placemark>
  <Placemark>
	<name>('Lincoln', 'Peterson')</name>
      <Point><coordinates>-87.7072078955,41.99029005175</coordinates></Point>
  </Placemark>
  <Placemark>
	<name>('Hoyne', 'Devon')</name>
      <Point><coordinates>-87.6825814435,41.9978221095</coordinates></Point>
  </Placemark>
  <Placemark>
	<name>('109th Street', 'Kedzie')</name>
      <Point><coordinates>-87.7009444995,41.6952115</coordinates></Point>
  </Placemark>
  <Placemark>
	<name>('California', 'Lunt')</name>
      <Point><coordinates>-87.699654091,42.008458726</coordinates></Point>
  </Placemark>
  <Placemark>
	<name>('33rd Street', 'King Drive')</name>
      <Point><coordinates>-87.61721233,41.8349454995</coordinates></Point>
  </Placemark>
  <Placemark>
	<name>('Oakton', 'Asbury')</name>
      <Point><coordinates>-87.690178157,42.026656955</coordinates></Point>
  </Placemark>
  <Placemark>
	<name>('Peterson', 'Jersey')</name>
      <Point><coordinates>-87.7109837935,41.9903657615</coordinates></Point>
  </Placemark>
  <Placemark>
	<name>('Meade', '55th Street')</name>
      <Point><coordinates>-87.774494514,41.7924896825</coordinates></Point>
  </Placemark>
  <Placemark>
	<name>('Longwood', '87th Street')</name>
      <Point><coordinates>-87.6760045105,41.735597725</coordinates></Point>
  </Placemark>
  <Placemark>
	<name>('Mayfield', '63rd Street')</name>
      <Point><coordinates>-87.7690301405,41.777917848</coordinates></Point>
  </Placemark>
  <Placemark>
	<name>('Congress', 'Hamlin/Independence')</name>
      <Point><coordinates>-87.719614168,41.874509487</coordinates></Point>
  </Placemark>
  <Placemark>
	<name>('87th Street', 'Hamlin')</name>
      <Point><coordinates>-87.7162439775,41.734937931</coordinates></Point>
  </Placemark>
  <Placemark>
	<name>('Leavitt', 'North Ave')</name>
      <Point><coordinates>-87.6823246275,41.9104117655</coordinates></Point>
  </Placemark>
  <Placemark>
	<name>('Cottage Grove', '79th Street')</name>
      <Point><coordinates>-87.60524623525,41.7512082255</coordinates></Point>
  </Placemark>
  <Placemark>
	<name>('71st Street', 'Stony Island')</name>
      <Point><coordinates>-87.5861087851667,41.7661452461667</coordinates></Point>
  </Placemark>
  <Placemark>
	<name>('Jackson', 'Lavergne')</name>
      <Point><coordinates>-87.7492319515,41.876712272</coordinates></Point>
  </Placemark>
  <Placemark>
	<name>('Irving Park', 'Neenah')</name>
      <Point><coordinates>-87.790889718,41.9528421555</coordinates></Point>
  </Placemark>
  <Placemark>
	<name>('California', 'Harrison')</name>
      <Point><coordinates>-87.69609931075,41.8737200725</coordinates></Point>
  </Placemark>
  <Placemark>
	<name>('California', 'Roosevelt')</name>
      <Point><coordinates>-87.69590751375,41.8663946155</coordinates></Point>
  </Placemark>
  <Placemark>
	<name>('Lavergne', '65th Street')</name>
      <Point><coordinates>-87.7469996135,41.774664881</coordinates></Point>
  </Placemark>
  <Placemark>
	<name>('Central Park', '59th Street')</name>
      <Point><coordinates>-87.712658568,41.7860982985</coordinates></Point>
  </Placemark>
  <Placemark>
	<name>('51st Street', 'Evans')</name>
      <Point><coordinates>-87.6078795095,41.802223069</coordinates></Point>
  </Placemark>
  <Placemark>
	<name>('Hermitage', 'Irving Park')</name>
      <Point><coordinates>-87.672089422,41.954352757</coordinates></Point>
  </Placemark>
  <Placemark>
	<name>('Ewing', '94th Street')</name>
      <Point><coordinates>-87.538079919,41.724816743</coordinates></Point>
  </Placemark>
  <Placemark>
	<name>('9320 S Ewing',)</name>
      <Point><coordinates>-87.539960658,41.726683976</coordinates></Point>
  </Placemark>
  <Placemark>
	<name>('Racine', '64th Street')</name>
      <Point><coordinates>-87.6544255,41.7778135</coordinates></Point>
  </Placemark>
  <Placemark>
	<name>('Langley', '132nd Street')</name>
      <Point><coordinates>-87.605069215,41.655717892</coordinates></Point>
  </Placemark>
  <Placemark>
	<name>('23rd Street', 'Wentworth')</name>
      <Point><coordinates>-87.631952,41.8510235</coordinates></Point>
  </Placemark>
  <Placemark>
	<name>('Loomis', 'Cermak')</name>
      <Point><coordinates>-87.661159666,41.85250271725</coordinates></Point>
  </Placemark>
  <Placemark>
	<name>('Cermak', 'Indiana')</name>
      <Point><coordinates>-87.621829389,41.852770711</coordinates></Point>
  </Placemark>
  <Placemark>
	<name>('Morgan', 'Cermak')</name>
      <Point><coordinates>-87.6515782815,41.8525735845</coordinates></Point>
  </Placemark>
  <Placemark>
	<name>('Western', 'Addison')</name>
      <Point><coordinates>-87.68825089325,41.94660801475</coordinates></Point>
  </Placemark>
  <Placemark>
	<name>('Campbell', '111th Street')</name>
      <Point><coordinates>-87.6836215885,41.6917721685</coordinates></Point>
  </Placemark>
  <Placemark>
	<name>('Madison', 'St. Louis')</name>
      <Point><coordinates>-87.7137958175,41.8808784395</coordinates></Point>
  </Placemark>
  <Placemark>
	<name>('Armitage', 'Kilpatrick')</name>
      <Point><coordinates>-87.743702103,41.9169629385</coordinates></Point>
  </Placemark>
  <Placemark>
	<name>('Acacia Park Cemetery',)</name>
      <Point><coordinates>-87.823659118,41.9523610805</coordinates></Point>
  </Placemark>
  <Placemark>
	<name>('Madison', 'Kenton')</name>
      <Point><coordinates>-87.7406514995,41.8805625005</coordinates></Point>
  </Placemark>
  <Placemark>
	<name>('111th Street', 'Vernon')</name>
      <Point><coordinates>-87.612262926,41.692670464</coordinates></Point>
  </Placemark>
  <Placemark>
	<name>('92nd Street', 'Baltimore')</name>
      <Point><coordinates>-87.5484625055,41.7282584825</coordinates></Point>
  </Placemark>
  <Placemark>
	<name>('Kilpatrick', '79th Street')</name>
      <Point><coordinates>-87.7384122433333,41.7491671266667</coordinates></Point>
  </Placemark>
  <Placemark>
	<name>('Kilpatrick', 'Fullerton')</name>
      <Point><coordinates>-87.74383782,41.9242469785</coordinates></Point>
  </Placemark>
  <Placemark>
	<name>('Ogden', 'Van Buren')</name>
      <Point><coordinates>-87.671876466,41.87632903</coordinates></Point>
  </Placemark>
  <Placemark>
	<name>('Fairbanks/Columbus', 'Grand')</name>
      <Point><coordinates>-87.620009,41.891862</coordinates></Point>
  </Placemark>
  <Placemark>
	<name>('67th Street', 'St. Lawrence')</name>
      <Point><coordinates>-87.6105506515,41.7730559755</coordinates></Point>
  </Placemark>
  <Placemark>
	<name>('Taylor', 'Loomis')</name>
      <Point><coordinates>-87.661658113,41.8693432015</coordinates></Point>
  </Placemark>
  <Placemark>
	<name>('Illinois', 'Clark')</name>
      <Point><coordinates>-87.631278999,41.890758</coordinates></Point>
  </Placemark>
  <Placemark>
	<name>('107th Street', 'Pulaski')</name>
      <Point><coordinates>-87.720590777,41.6985804735</coordinates></Point>
  </Placemark>
  <Placemark>
	<name>('Cottage Grove', '101st Street')</name>
      <Point><coordinates>-87.605697401,41.7110720065</coordinates></Point>
  </Placemark>
  <Placemark>
	<name>('Northwest Hwy', 'Oketo')</name>
      <Point><coordinates>-87.8117028415,41.999912447</coordinates></Point>
  </Placemark>
  <Placemark>
	<name>('52nd Street', 'Halsted')</name>
      <Point><coordinates>-87.645295782,41.799756089</coordinates></Point>
  </Placemark>
  <Placemark>
	<name>('60th Street', 'Halsted')</name>
      <Point><coordinates>-87.6449211495,41.7851156215</coordinates></Point>
  </Placemark>
  <Placemark>
	<name>('Central Park', '18th Street')</name>
      <Point><coordinates>-87.7151129795,41.8571708185</coordinates></Point>
  </Placemark>
  <Placemark>
	<name>('Western', 'Arthur')</name>
      <Point><coordinates>-87.689925999,41.999535</coordinates></Point>
  </Placemark>
  <Placemark>
	<name>('15th Street', 'Kedzie')</name>
      <Point><coordinates>-87.705516,41.8613080005</coordinates></Point>
  </Placemark>
  <Placemark>
	<name>('Dickens', 'Kimball')</name>
      <Point><coordinates>-87.7119269995,41.9191665</coordinates></Point>
  </Placemark>
  <Placemark>
	<name>('Narragansett', 'Waveland')</name>
      <Point><coordinates>-87.7863149995,41.9474445</coordinates></Point>
  </Placemark>
  <Placemark>
	<name>('Damen', 'Hubbard')</name>
      <Point><coordinates>-87.6768575005,41.8897190005</coordinates></Point>
  </Placemark>
  <Placemark>
	<name>('Central', 'Schubert')</name>
      <Point><coordinates>-87.766172,41.9294435005</coordinates></Point>
  </Placemark>
  <Placemark>
	<name>('62nd Street', 'Kedzie')</name>
      <Point><coordinates>-87.7031983305,41.780795499</coordinates></Point>
  </Placemark>
  <Placemark>
	<name>('Cicero', '64th Street')</name>
      <Point><coordinates>-87.7422235,41.7765880555</coordinates></Point>
  </Placemark>
  <Placemark>
	<name>('46th Street', 'Cicero')</name>
      <Point><coordinates>-87.7431992715,41.809453311</coordinates></Point>
  </Placemark>
  <Placemark>
	<name>('Stony Island', '64th Street')</name>
      <Point><coordinates>-87.5864243495,41.7788306885</coordinates></Point>
  </Placemark>
  <Placemark>
	<name>('Altgeld', 'Pulaski')</name>
      <Point><coordinates>-87.7268170755,41.926235</coordinates></Point>
  </Placemark>
  <Placemark>
	<name>('Cicero', '65th Street')</name>
      <Point><coordinates>-87.7421685125,41.7747817195</coordinates></Point>
  </Placemark>
  <Placemark>
	<name>('Ohio', 'Sacramento')</name>
      <Point><coordinates>-87.7019999095,41.8919137195</coordinates></Point>
  </Placemark>
  <Placemark>
	<name>('61st Street', 'Harlem')</name>
      <Point><coordinates>-87.800915,41.780856</coordinates></Point>
  </Placemark>
  <Placemark>
	<name>('Eugenie', 'Sedgwick')</name>
      <Point><coordinates>-87.6386386755,41.9128568</coordinates></Point>
  </Placemark>
  <Placemark>
	<name>('Ewing', '110th Street')</name>
      <Point><coordinates>-87.535294148,41.695464105</coordinates></Point>
  </Placemark>
  <Placemark>
	<name>('85th Street', 'King Drive')</name>
      <Point><coordinates>-87.6145995215,41.7401330245</coordinates></Point>
  </Placemark>
  <Placemark>
	<name>('Cortland', 'Damen')</name>
      <Point><coordinates>-87.677578634,41.916093819</coordinates></Point>
  </Placemark>
  <Placemark>
	<name>('8200 N Niles Center',)</name>
      <Point><coordinates>-87.753465692,42.0296970955</coordinates></Point>
  </Placemark>
  <Placemark>
	<name>('5061 N Pulaski',)</name>
      <Point><coordinates>-87.728143253,41.973499488</coordinates></Point>
  </Placemark>
  <Placemark>
	<name>('5300 N Pulaski',)</name>
      <Point><coordinates>-87.7282899475,41.977593494</coordinates></Point>
  </Placemark>
  <Placemark>
	<name>('Pulaski', 'Erie')</name>
      <Point><coordinates>-87.7260083855,41.892883401</coordinates></Point>
  </Placemark>
  <Placemark>
	<name>('Iowa', 'Ridgeland')</name>
      <Point><coordinates>-87.7849263185,41.896392077</coordinates></Point>
  </Placemark>
  <Placemark>
	<name>('Pulaski', '82nd Street')</name>
      <Point><coordinates>-87.721664725,41.743983214</coordinates></Point>
  </Placemark>
  <Placemark>
	<name>('Austin', 'Cornelia')</name>
      <Point><coordinates>-87.77642317,41.9438272105</coordinates></Point>
  </Placemark>
  <Placemark>
	<name>('40th Street', 'State')</name>
      <Point><coordinates>-87.6263885005,41.8218780005</coordinates></Point>
  </Placemark>
  <Placemark>
	<name>('Summerdale', 'Harlem')</name>
      <Point><coordinates>-87.8069917605,41.9775172285</coordinates></Point>
  </Placemark>
  <Placemark>
	<name>('86th Street', 'King Drive')</name>
      <Point><coordinates>-87.6145422645,41.738307079</coordinates></Point>
  </Placemark>
  <Placemark>
	<name>('Cicero', 'Cornelia')</name>
      <Point><coordinates>-87.747013132,41.9446778005</coordinates></Point>
  </Placemark>
  <Placemark>
	<name>('Cullom', 'Austin')</name>
      <Point><coordinates>-87.776956,41.9585125005</coordinates></Point>
  </Placemark>
  <Placemark>
	<name>('Catalpa', 'Central')</name>
      <Point><coordinates>-87.7683779995,41.9811155005</coordinates></Point>
  </Placemark>
  <Placemark>
	<name>('Pulaski', '30th Street')</name>
      <Point><coordinates>-87.7243915005,41.8387175</coordinates></Point>
  </Placemark>
  <Placemark>
	<name>('Lawrence', 'Courtland')</name>
      <Point><coordinates>-87.831471393,41.966575486</coordinates></Point>
  </Placemark>
  <Placemark>
	<name>('Peoria', '69th Street')</name>
      <Point><coordinates>-87.6468633625,41.7687945075</coordinates></Point>
  </Placemark>
  <Placemark>
	<name>('Central', '65th Street')</name>
      <Point><coordinates>-87.7615750525,41.7743902735</coordinates></Point>
  </Placemark>
  <Placemark>
	<name>('Palmer', 'Kimball')</name>
      <Point><coordinates>-87.7119892485,41.9211426045</coordinates></Point>
  </Placemark>
  <Placemark>
	<name>('Wayne', 'Ridge')</name>
      <Point><coordinates>-87.6634629385,41.9857030545</coordinates></Point>
  </Placemark>
  <Placemark>
	<name>('Pershing', 'Ashland')</name>
      <Point><coordinates>-87.66510292075,41.823042914</coordinates></Point>
  </Placemark>
  <Placemark>
	<name>('Archer', 'Cicero')</name>
      <Point><coordinates>-87.7429546713333,41.7986425315</coordinates></Point>
  </Placemark>
  <Placemark>
	<name>('Racine', '47th Street')</name>
      <Point><coordinates>-87.655383084,41.80865750275</coordinates></Point>
  </Placemark>
  <Placemark>
	<name>('Broadway', 'Bryn Mawr/Ridge')</name>
      <Point><coordinates>-87.660075058,41.9838521415</coordinates></Point>
  </Placemark>
  <Placemark>
	<name>('Wellington', 'Broadway')</name>
      <Point><coordinates>-87.644362,41.936579</coordinates></Point>
  </Placemark>
  <Placemark>
	<name>('69th Street', 'State (Red Line)')</name>
      <Point><coordinates>-87.625270511,41.76910793</coordinates></Point>
  </Placemark>
  <Placemark>
	<name>('Jackson', 'Hamlin')</name>
      <Point><coordinates>-87.7209373305,41.877145579</coordinates></Point>
  </Placemark>
  <Placemark>
	<name>('St. Louis', 'Addison')</name>
      <Point><coordinates>-87.715160922,41.946527348</coordinates></Point>
  </Placemark>
  <Placemark>
	<name>('Canal', '26th Street')</name>
      <Point><coordinates>-87.638338651,41.8455647855</coordinates></Point>
  </Placemark>
  <Placemark>
	<name>('Michigan', 'Jackson')</name>
      <Point><coordinates>-87.6243195,41.8782820005</coordinates></Point>
  </Placemark>
  <Placemark>
	<name>('Wellington', 'Cicero')</name>
      <Point><coordinates>-87.746731549,41.934984736</coordinates></Point>
  </Placemark>
  <Placemark>
	<name>('California', '63rd Street')</name>
      <Point><coordinates>-87.6933917905,41.7791226565</coordinates></Point>
  </Placemark>
  <Placemark>
	<name>('Ashland', '81st Street')</name>
      <Point><coordinates>-87.66334727,41.7468524025</coordinates></Point>
  </Placemark>
  <Placemark>
	<name>('69th Street', 'Western')</name>
      <Point><coordinates>-87.6833966443333,41.7682715163333</coordinates></Point>
  </Placemark>
  <Placemark>
	<name>('California', '42nd Street')</name>
      <Point><coordinates>-87.694451043,41.81734264</coordinates></Point>
  </Placemark>
  <Placemark>
	<name>('Cottage Grove', 'Marquette Rd')</name>
      <Point><coordinates>-87.6058061065,41.77496071</coordinates></Point>
  </Placemark>
  <Placemark>
	<name>('Maypole', 'Cicero')</name>
      <Point><coordinates>-87.7454246755,41.8842914995</coordinates></Point>
  </Placemark>
  <Placemark>
	<name>('Central Park', 'Harrison')</name>
      <Point><coordinates>-87.715556446,41.873474367</coordinates></Point>
  </Placemark>
  <Placemark>
	<name>('Franklin', 'Grand')</name>
      <Point><coordinates>-87.6355472965,41.891586163</coordinates></Point>
  </Placemark>
  <Placemark>
	<name>('Southport', 'Irving Park')</name>
      <Point><coordinates>-87.664506285,41.954345827</coordinates></Point>
  </Placemark>
  <Placemark>
	<name>('87th Street', 'Dorchester')</name>
      <Point><coordinates>-87.5903698675,41.7368582375</coordinates></Point>
  </Placemark>
  <Placemark>
	<name>('Tripp', 'Foster')</name>
      <Point><coordinates>-87.7345417625,41.9754597455</coordinates></Point>
  </Placemark>
  <Placemark>
	<name>('Lawrence', 'Western')</name>
      <Point><coordinates>-87.6889169525,41.96861492825</coordinates></Point>
  </Placemark>
  <Placemark>
	<name>('Montrose', 'Kimball')</name>
      <Point><coordinates>-87.71310980825,41.961125795</coordinates></Point>
  </Placemark>
  <Placemark>
	<name>('Loomis', 'Roosevelt')</name>
      <Point><coordinates>-87.6616088835,41.866914148</coordinates></Point>
  </Placemark>
  <Placemark>
	<name>('59th Street', 'Halsted')</name>
      <Point><coordinates>-87.6449725325,41.7870960445</coordinates></Point>
  </Placemark>
  <Placemark>
	<name>('Laramie', '55th Street')</name>
      <Point><coordinates>-87.7524202525,41.792888925</coordinates></Point>
  </Placemark>
  <Placemark>
	<name>('Melvina', 'Fullerton')</name>
      <Point><coordinates>-87.78058308,41.923754647</coordinates></Point>
  </Placemark>
  <Placemark>
	<name>('Pershing', 'King Drive')</name>
      <Point><coordinates>-87.6169997246667,41.8238212851667</coordinates></Point>
  </Placemark>
  <Placemark>
	<name>('119th Street', 'Wentworth')</name>
      <Point><coordinates>-87.627462472,41.6779717335</coordinates></Point>
  </Placemark>
  <Placemark>
	<name>('Ashland', 'North Ave')</name>
      <Point><coordinates>-87.66781221925,41.9106954485</coordinates></Point>
  </Placemark>
  <Placemark>
	<name>('95th Street', 'Leavitt')</name>
      <Point><coordinates>-87.6772131355,41.721010256</coordinates></Point>
  </Placemark>
  <Placemark>
	<name>('Lawrence', 'Austin/Mason')</name>
      <Point><coordinates>-87.776959606,41.967655749</coordinates></Point>
  </Placemark>
  <Placemark>
	<name>('Wallace', '35th Street')</name>
      <Point><coordinates>-87.64113577175,41.83081254775</coordinates></Point>
  </Placemark>
  <Placemark>
	<name>('111th Street', 'Bell')</name>
      <Point><coordinates>-87.6775038415,41.691828917</coordinates></Point>
  </Placemark>
  <Placemark>
	<name>('Lunt', 'Western')</name>
      <Point><coordinates>-87.690003323,42.008622895</coordinates></Point>
  </Placemark>
  <Placemark>
	<name>('Clinton', 'Jackson')</name>
      <Point><coordinates>-87.6411515885,41.878045565</coordinates></Point>
  </Placemark>
  <Placemark>
	<name>('Taylor', 'Ogden')</name>
      <Point><coordinates>-87.68087704875,41.869037954</coordinates></Point>
  </Placemark>
  <Placemark>
	<name>('Foster', 'Kostner')</name>
      <Point><coordinates>-87.7382080575,41.9754288045</coordinates></Point>
  </Placemark>
  <Placemark>
	<name>('Garfield', 'Ashland')</name>
      <Point><coordinates>-87.66458349775,41.793835023</coordinates></Point>
  </Placemark>
  <Placemark>
	<name>('59th Street', 'Western')</name>
      <Point><coordinates>-87.683793952,41.7865218965</coordinates></Point>
  </Placemark>
  <Placemark>
	<name>('Michigan', '103rd Street')</name>
      <Point><coordinates>-87.620091643,41.70731120025</coordinates></Point>
  </Placemark>
  <Placemark>
	<name>('Belmont', 'Harlem')</name>
      <Point><coordinates>-87.806729278,41.9379908485</coordinates></Point>
  </Placemark>
  <Placemark>
	<name>('Armitage', 'Kostner')</name>
      <Point><coordinates>-87.7360893365,41.9170499425</coordinates></Point>
  </Placemark>
  <Placemark>
	<name>('Jackson', 'Kedzie')</name>
      <Point><coordinates>-87.70602266225,41.87728213775</coordinates></Point>
  </Placemark>
  <Placemark>
	<name>('79th Street', 'Kenwood')</name>
      <Point><coordinates>-87.5918383775,41.751424833</coordinates></Point>
  </Placemark>
  <Placemark>
	<name>('Kilbourn', 'Fullerton')</name>
      <Point><coordinates>-87.7390007415,41.924335644</coordinates></Point>
  </Placemark>
  <Placemark>
	<name>('Menard', 'Chicago')</name>
      <Point><coordinates>-87.7704520905,41.894786962</coordinates></Point>
  </Placemark>
  <Placemark>
	<name>('Cicero', '55th Street')</name>
      <Point><coordinates>-87.7423019325,41.79306811</coordinates></Point>
  </Placemark>
  <Placemark>
	<name>('Wentworth', '103rd Street')</name>
      <Point><coordinates>-87.6285337805,41.707101529</coordinates></Point>
  </Placemark>
  <Placemark>
	<name>('California', 'Armitage')</name>
      <Point><coordinates>-87.6971821005,41.917492271</coordinates></Point>
  </Placemark>
  <Placemark>
	<name>('Drexel', '43rd Street')</name>
      <Point><coordinates>-87.6042228325,41.8168376065</coordinates></Point>
  </Placemark>
  <Placemark>
	<name>('95th Street', 'St. Lawrence')</name>
      <Point><coordinates>-87.6093917795,41.7219823345</coordinates></Point>
  </Placemark>
  <Placemark>
	<name>('115th Street', 'Watkins')</name>
      <Point><coordinates>-87.666070215,41.684736263</coordinates></Point>
  </Placemark>
  <Placemark>
	<name>('Fremont', 'Irving Park')</name>
      <Point><coordinates>-87.6519603845,41.954528388</coordinates></Point>
  </Placemark>
  <Placemark>
	<name>('Sangamon', 'Chicago')</name>
      <Point><coordinates>-87.651485261,41.896329705</coordinates></Point>
  </Placemark>
  <Placemark>
	<name>('Linder', 'Montrose')</name>
      <Point><coordinates>-87.764590612,41.9605408755</coordinates></Point>
  </Placemark>
  <Placemark>
	<name>('87th Street', 'Kostner')</name>
      <Point><coordinates>-87.7313752285,41.7346591725</coordinates></Point>
  </Placemark>
  <Placemark>
	<name>('87th Street', 'Kenton')</name>
      <Point><coordinates>-87.736298831,41.734580956</coordinates></Point>
  </Placemark>
  <Placemark>
	<name>('California Boulevard', '26th Street')</name>
      <Point><coordinates>-87.6944145535,41.8447024155</coordinates></Point>
  </Placemark>
  <Placemark>
	<name>('Fairfield', '103rd Street')</name>
      <Point><coordinates>-87.6900580035,41.7063297295</coordinates></Point>
  </Placemark>
  <Placemark>
	<name>('79th Street', 'Cregier')</name>
      <Point><coordinates>-87.5808286495,41.7515480945</coordinates></Point>
  </Placemark>
  <Placemark>
	<name>('Oakton', 'St. Louis')</name>
      <Point><coordinates>-87.7157440945,42.026291477</coordinates></Point>
  </Placemark>
  <Placemark>
	<name>('79th Street', 'Karlov')</name>
      <Point><coordinates>-87.7244795025,41.7494665455</coordinates></Point>
  </Placemark>
  <Placemark>
	<name>('Central Street', 'Hartrey')</name>
      <Point><coordinates>-87.7034164915,42.064351184</coordinates></Point>
  </Placemark>
  <Placemark>
	<name>('King Drive', '65th Street')</name>
      <Point><coordinates>-87.6155365895,41.7765489655</coordinates></Point>
  </Placemark>
  <Placemark>
	<name>('Northwest Hwy', 'Oliphant')</name>
      <Point><coordinates>-87.8161593475,42.0027747395</coordinates></Point>
  </Placemark>
  <Placemark>
	<name>('Sacramento', 'Archer')</name>
      <Point><coordinates>-87.6993535105,41.817105883</coordinates></Point>
  </Placemark>
  <Placemark>
	<name>('Jackson', 'Wells')</name>
      <Point><coordinates>-87.633793,41.878194</coordinates></Point>
  </Placemark>
  <Placemark>
	<name>('Torrence', '106th Street')</name>
      <Point><coordinates>-87.55941111275,41.702876361</coordinates></Point>
  </Placemark>
  <Placemark>
	<name>('Vincennes', '83rd Street')</name>
      <Point><coordinates>-87.6358291296667,41.7441828093333</coordinates></Point>
  </Placemark>
  <Placemark>
	<name>('Holland', '83rd Street')</name>
      <Point><coordinates>-87.6324256645,41.743540304</coordinates></Point>
  </Placemark>
  <Placemark>
	<name>('8400 S Holland',)</name>
      <Point><coordinates>-87.632118589,41.741442044</coordinates></Point>
  </Placemark>
  <Placemark>
	<name>('8500 S Holland',)</name>
      <Point><coordinates>-87.632075503,41.739098555</coordinates></Point>
  </Placemark>
  <Placemark>
	<name>('8501 S Holland',)</name>
      <Point><coordinates>-87.631830084,41.739340222</coordinates></Point>
  </Placemark>
  <Placemark>
	<name>('59th Street', 'Damen')</name>
      <Point><coordinates>-87.67409877275,41.78662566375</coordinates></Point>
  </Placemark>
  <Placemark>
	<name>('Kilpatrick', '55th Street')</name>
      <Point><coordinates>-87.739949812,41.793054504</coordinates></Point>
  </Placemark>
  <Placemark>
	<name>('Lafayette', '75th Street')</name>
      <Point><coordinates>-87.6265502145,41.75814086125</coordinates></Point>
  </Placemark>
  <Placemark>
	<name>('Cottage Grove', '51st Street')</name>
      <Point><coordinates>-87.606530204,41.80232409275</coordinates></Point>
  </Placemark>
  <Placemark>
	<name>('87th Red Line Station',)</name>
      <Point><coordinates>-87.624829279,41.736161297</coordinates></Point>
  </Placemark>
  <Placemark>
	<name>('Austin', 'Division')</name>
      <Point><coordinates>-87.775357071,41.9018603865</coordinates></Point>
  </Placemark>
  <Placemark>
	<name>('Narragansett', 'Wrightwood')</name>
      <Point><coordinates>-87.7855620005,41.9273755</coordinates></Point>
  </Placemark>
  <Placemark>
	<name>('Ridge', 'Glenwood')</name>
      <Point><coordinates>-87.665041001,41.9866565</coordinates></Point>
  </Placemark>
  <Placemark>
	<name>('Touhy', 'Kedzie')</name>
      <Point><coordinates>-87.7090662315,42.0119332425</coordinates></Point>
  </Placemark>
  <Placemark>
	<name>('Avenue O', '134th Street')</name>
      <Point><coordinates>-87.5398896115,41.651894179</coordinates></Point>
  </Placemark>
  <Placemark>
	<name>('LaSalle', 'Kinzie')</name>
      <Point><coordinates>-87.632368674,41.889375625</coordinates></Point>
  </Placemark>
  <Placemark>
	<name>('Polk', 'Ashland')</name>
      <Point><coordinates>-87.666530449,41.8716948175</coordinates></Point>
  </Placemark>
  <Placemark>
	<name>('Cicero', 'Grand')</name>
      <Point><coordinates>-87.74598255525,41.9139222985</coordinates></Point>
  </Placemark>
  <Placemark>
	<name>('Jarvis', 'Western')</name>
      <Point><coordinates>-87.69020613,42.015785417</coordinates></Point>
  </Placemark>
  <Placemark>
	<name>('Ashland', 'Cortland')</name>
      <Point><coordinates>-87.66791916,41.916115236</coordinates></Point>
  </Placemark>
  <Placemark>
	<name>('Canal', 'Van Buren')</name>
      <Point><coordinates>-87.6394092285,41.8769137405</coordinates></Point>
  </Placemark>
  <Placemark>
	<name>('Irving Park', 'Oak Park')</name>
      <Point><coordinates>-87.7962381015,41.9527429205</coordinates></Point>
  </Placemark>
  <Placemark>
	<name>('Narragansett', 'Fullerton')</name>
      <Point><coordinates>-87.78544119075,41.92368511125</coordinates></Point>
  </Placemark>
  <Placemark>
	<name>('Madison', 'Sacramento')</name>
      <Point><coordinates>-87.7009714185,41.881021017</coordinates></Point>
  </Placemark>
  <Placemark>
	<name>('Long', 'North Ave')</name>
      <Point><coordinates>-87.760714382,41.909444093</coordinates></Point>
  </Placemark>
  <Placemark>
	<name>('California', 'Montrose')</name>
      <Point><coordinates>-87.698182529,41.961247819</coordinates></Point>
  </Placemark>
  <Placemark>
	<name>('Lawrence', 'Leclaire')</name>
      <Point><coordinates>-87.755012004,41.9679188595</coordinates></Point>
  </Placemark>
  <Placemark>
	<name>('111th Street', 'Kedzie')</name>
      <Point><coordinates>-87.70082536875,41.69157023575</coordinates></Point>
  </Placemark>
  <Placemark>
	<name>('Racine', '115th Street')</name>
      <Point><coordinates>-87.651895668,41.6849625455</coordinates></Point>
  </Placemark>
  <Placemark>
	<name>('Paulina', 'Chicago')</name>
      <Point><coordinates>-87.669480888,41.896032709</coordinates></Point>
  </Placemark>
  <Placemark>
	<name>('Central', 'Fullerton')</name>
      <Point><coordinates>-87.76600541075,41.92398010475</coordinates></Point>
  </Placemark>
  <Placemark>
	<name>('Menard', 'Fullerton')</name>
      <Point><coordinates>-87.771040001,41.9239027165</coordinates></Point>
  </Placemark>
  <Placemark>
	<name>('Pulaski', '79th Street')</name>
      <Point><coordinates>-87.7217477995,41.7493826505</coordinates></Point>
  </Placemark>
  <Placemark>
	<name>('Garfield', 'King Drive')</name>
      <Point><coordinates>-87.616061168,41.7946363081667</coordinates></Point>
  </Placemark>
  <Placemark>
	<name>('Rockwell', 'Chicago')</name>
      <Point><coordinates>-87.69177481,41.89568972</coordinates></Point>
  </Placemark>
  <Placemark>
	<name>('Kedzie Terminal', 'Devon')</name>
      <Point><coordinates>-87.709531598,41.997860364</coordinates></Point>
  </Placemark>
  <Placemark>
	<name>('Pulaski', 'Bryn Mawr')</name>
      <Point><coordinates>-87.728438985,41.982858402</coordinates></Point>
  </Placemark>
  <Placemark>
	<name>('Lawndale', 'North Ave')</name>
      <Point><coordinates>-87.7191091185,41.9099874485</coordinates></Point>
  </Placemark>
  <Placemark>
	<name>('Wells', 'North Ave')</name>
      <Point><coordinates>-87.6347006355,41.9111182485</coordinates></Point>
  </Placemark>
  <Placemark>
	<name>('Leavitt', 'Cermak')</name>
      <Point><coordinates>-87.680795358,41.852099443</coordinates></Point>
  </Placemark>
  <Placemark>
	<name>('Diversey', 'Kilpatrick')</name>
      <Point><coordinates>-87.744015787,41.931629577</coordinates></Point>
  </Placemark>
  <Placemark>
	<name>('Milwaukee', 'Fullerton')</name>
      <Point><coordinates>-87.70038818775,41.92480140925</coordinates></Point>
  </Placemark>
  <Placemark>
	<name>('Ashland', '49th Street')</name>
      <Point><coordinates>-87.664872858,41.80505595</coordinates></Point>
  </Placemark>
  <Placemark>
	<name>('Lockwood', 'Archer')</name>
      <Point><coordinates>-87.7550933225,41.7968502135</coordinates></Point>
  </Placemark>
  <Placemark>
	<name>('Clark', 'Armitage')</name>
      <Point><coordinates>-87.6362329395,41.918432367</coordinates></Point>
  </Placemark>
  <Placemark>
	<name>('Southport', 'Belmont')</name>
      <Point><coordinates>-87.66381469,41.9397665385</coordinates></Point>
  </Placemark>
  <Placemark>
	<name>('Kostner', 'Belmont')</name>
      <Point><coordinates>-87.7370375025,41.9389615915</coordinates></Point>
  </Placemark>
  <Placemark>
	<name>('87th Street', 'Stony Island (Nearside)')</name>
      <Point><coordinates>-87.585434747,41.7369142445</coordinates></Point>
  </Placemark>
  <Placemark>
	<name>('Avenue O', '116th Street')</name>
      <Point><coordinates>-87.540135188,41.68481518</coordinates></Point>
  </Placemark>
  <Placemark>
	<name>('Damen', 'Webster')</name>
      <Point><coordinates>-87.6777755,41.921383</coordinates></Point>
  </Placemark>
  <Placemark>
	<name>('Pershing', 'LaSalle')</name>
      <Point><coordinates>-87.629653131,41.8237565345</coordinates></Point>
  </Placemark>
  <Placemark>
	<name>('63rd Street', 'St. Louis')</name>
      <Point><coordinates>-87.7101173825,41.7788365115</coordinates></Point>
  </Placemark>
  <Placemark>
	<name>('Montrose', 'Hamlin')</name>
      <Point><coordinates>-87.7229293655,41.961012427</coordinates></Point>
  </Placemark>
  <Placemark>
	<name>('Sedgwick (Brown Line)', 'North Ave')</name>
      <Point><coordinates>-87.638598327,41.911110767</coordinates></Point>
  </Placemark>
  <Placemark>
	<name>('63rd Street', 'Wentworth')</name>
      <Point><coordinates>-87.6299881806667,41.779895675</coordinates></Point>
  </Placemark>
  <Placemark>
	<name>('87th Street', 'Commercial')</name>
      <Point><coordinates>-87.55153263675,41.73737628325</coordinates></Point>
  </Placemark>
  <Placemark>
	<name>('Harrison', 'Halsted')</name>
      <Point><coordinates>-87.6474953483333,41.8741827696667</coordinates></Point>
  </Placemark>
  <Placemark>
	<name>('Irving Park', 'Hamlin')</name>
      <Point><coordinates>-87.7226699545,41.9537349305</coordinates></Point>
  </Placemark>
  <Placemark>
	<name>('Southport', 'Cortland')</name>
      <Point><coordinates>-87.663010986,41.9170453295</coordinates></Point>
  </Placemark>
  <Placemark>
	<name>('Ashland', 'Montrose')</name>
      <Point><coordinates>-87.669270523,41.961590782</coordinates></Point>
  </Placemark>
  <Placemark>
	<name>('Madison', 'Western')</name>
      <Point><coordinates>-87.68628137925,41.88109734325</coordinates></Point>
  </Placemark>
  <Placemark>
	<name>('Armitage', 'Kedzie')</name>
      <Point><coordinates>-87.7066381165,41.9174072105</coordinates></Point>
  </Placemark>
  <Placemark>
	<name>('State', '103rd Street')</name>
      <Point><coordinates>-87.6235274945,41.7071644765</coordinates></Point>
  </Placemark>
  <Placemark>
	<name>('Wood', '103rd Street')</name>
      <Point><coordinates>-87.6671212295,41.7066058915</coordinates></Point>
  </Placemark>
  <Placemark>
	<name>('Higgins', 'Harlem')</name>
      <Point><coordinates>-87.80690711225,41.98102316525</coordinates></Point>
  </Placemark>
  <Placemark>
	<name>('State', 'Roosevelt')</name>
      <Point><coordinates>-87.6274517195,41.8675199605</coordinates></Point>
  </Placemark>
  <Placemark>
	<name>('Michigan', 'Cullerton')</name>
      <Point><coordinates>-87.6238815525,41.85552546</coordinates></Point>
  </Placemark>
  <Placemark>
	<name>('76th Street', 'Ashland')</name>
      <Point><coordinates>-87.663575425,41.755814944</coordinates></Point>
  </Placemark>
  <Placemark>
	<name>('Archer', 'Kedzie')</name>
      <Point><coordinates>-87.7041204815,41.8141996775</coordinates></Point>
  </Placemark>
  <Placemark>
	<name>('State', '18th Street')</name>
      <Point><coordinates>-87.6272039725,41.8578412205</coordinates></Point>
  </Placemark>
  <Placemark>
	<name>('Narragansett', 'Diversey')</name>
      <Point><coordinates>-87.7856876285,41.9309953565</coordinates></Point>
  </Placemark>
  <Placemark>
	<name>('Racine', 'Marquette Rd')</name>
      <Point><coordinates>-87.654308255,41.7723337915</coordinates></Point>
  </Placemark>
  <Placemark>
	<name>('Wellington', 'Ashland')</name>
      <Point><coordinates>-87.668539842,41.935958954</coordinates></Point>
  </Placemark>
  <Placemark>
	<name>('Hollywood', 'Broadway')</name>
      <Point><coordinates>-87.660129499,41.9854325</coordinates></Point>
  </Placemark>
  <Placemark>
	<name>('Archer', 'Damen')</name>
      <Point><coordinates>-87.6753192455,41.831915832</coordinates></Point>
  </Placemark>
  <Placemark>
	<name>('Wabash', 'Wacker (Upper)')</name>
      <Point><coordinates>-87.626486947,41.887544036</coordinates></Point>
  </Placemark>
  <Placemark>
	<name>('King Drive', '26th Street')</name>
      <Point><coordinates>-87.6176192033333,41.8455823813333</coordinates></Point>
  </Placemark>
  <Placemark>
	<name>('Morse', 'Paulina')</name>
      <Point><coordinates>-87.672279196,42.007747793</coordinates></Point>
  </Placemark>
  <Placemark>
	<name>('Marquette Rd', 'Wentworth')</name>
      <Point><coordinates>-87.629967969,41.7725112245</coordinates></Point>
  </Placemark>
  <Placemark>
	<name>('Broadway', 'Wilson')</name>
      <Point><coordinates>-87.6574868005,41.9654188365</coordinates></Point>
  </Placemark>
  <Placemark>
	<name>('Vincennes', '75th Street/Yale')</name>
      <Point><coordinates>-87.6313040875,41.7582833</coordinates></Point>
  </Placemark>
  <Placemark>
	<name>('79th Street', 'King Drive')</name>
      <Point><coordinates>-87.614842925,41.75111769125</coordinates></Point>
  </Placemark>
  <Placemark>
	<name>('Western/Clybourn', 'Belmont')</name>
      <Point><coordinates>-87.688061631,41.93946751</coordinates></Point>
  </Placemark>
  <Placemark>
	<name>('Broadway', 'Addison')</name>
      <Point><coordinates>-87.647264724,41.947339322</coordinates></Point>
  </Placemark>
  <Placemark>
	<name>('Central', 'Addison')</name>
      <Point><coordinates>-87.7668092395,41.9458765855</coordinates></Point>
  </Placemark>
  <Placemark>
	<name>('Garfield Red Line Station',)</name>
      <Point><coordinates>-87.631071981,41.7943504595</coordinates></Point>
  </Placemark>
  <Placemark>
	<name>('Clinton', 'Washington')</name>
      <Point><coordinates>-87.641313,41.883314001</coordinates></Point>
  </Placemark>
  <Placemark>
	<name>('Sacramento', 'Ogden')</name>
      <Point><coordinates>-87.701371863,41.8593245635</coordinates></Point>
  </Placemark>
  <Placemark>
	<name>('Blue Island', 'Roosevelt')</name>
      <Point><coordinates>-87.65334247,41.8670525735</coordinates></Point>
  </Placemark>
  <Placemark>
	<name>('Irving Park Brown Line Station',)</name>
      <Point><coordinates>-87.674891152,41.9541996615</coordinates></Point>
  </Placemark>
  <Placemark>
	<name>('63rd Street', 'Woodlawn')</name>
      <Point><coordinates>-87.596402471,41.780519157</coordinates></Point>
  </Placemark>
  <Placemark>
	<name>('Foster', 'Long')</name>
      <Point><coordinates>-87.7627543045,41.975171886</coordinates></Point>
  </Placemark>
  <Placemark>
	<name>('Albany', '26th Street')</name>
      <Point><coordinates>-87.7025213565,41.8445568785</coordinates></Point>
  </Placemark>
  <Placemark>
	<name>('Kilbourn', 'Montrose')</name>
      <Point><coordinates>-87.7411739895,41.9607843545</coordinates></Point>
  </Placemark>
  <Placemark>
	<name>('Irving Park', 'Menard')</name>
      <Point><coordinates>-87.771899822,41.9531199055</coordinates></Point>
  </Placemark>
  <Placemark>
	<name>('Ashland', 'Roosevelt')</name>
      <Point><coordinates>-87.666347523,41.86687082325</coordinates></Point>
  </Placemark>
  <Placemark>
	<name>('Irving Park', 'Sheridan')</name>
      <Point><coordinates>-87.65452991375,41.9544805725</coordinates></Point>
  </Placemark>
  <Placemark>
	<name>('Sheridan', 'Belmont')</name>
      <Point><coordinates>-87.6396655385,41.94015565575</coordinates></Point>
  </Placemark>
  <Placemark>
	<name>('Sacramento', 'Fullerton')</name>
      <Point><coordinates>-87.702422001,41.924702</coordinates></Point>
  </Placemark>
  <Placemark>
	<name>('47th Street', 'Homan')</name>
      <Point><coordinates>-87.7086285315,41.80805861</coordinates></Point>
  </Placemark>
  <Placemark>
	<name>('Forest Preserve Avenue', 'Addison')</name>
      <Point><coordinates>-87.825367226,41.945066086</coordinates></Point>
  </Placemark>
  <Placemark>
	<name>('87th Street', 'Ashland')</name>
      <Point><coordinates>-87.662891619,41.7356752255</coordinates></Point>
  </Placemark>
  <Placemark>
	<name>('Pershing', 'Kedzie')</name>
      <Point><coordinates>-87.70444991275,41.82255182225</coordinates></Point>
  </Placemark>
  <Placemark>
	<name>('Lawrence', 'Hamlin')</name>
      <Point><coordinates>-87.7231270205,41.9682860745</coordinates></Point>
  </Placemark>
  <Placemark>
	<name>('Lawndale', '87th Street')</name>
      <Point><coordinates>-87.714106357,41.734975235</coordinates></Point>
  </Placemark>
  <Placemark>
	<name>('Clark', 'Howard')</name>
      <Point><coordinates>-87.676325275,42.019185167</coordinates></Point>
  </Placemark>
  <Placemark>
	<name>('Cicero Blue Line Station',)</name>
      <Point><coordinates>-87.74506329,41.871613955</coordinates></Point>
  </Placemark>
  <Placemark>
	<name>('Austin Terminal', 'Chicago')</name>
      <Point><coordinates>-87.77484321,41.894925532</coordinates></Point>
  </Placemark>
  <Placemark>
	<name>('Cottage Grove', '37th Street')</name>
      <Point><coordinates>-87.6088213595,41.827711038</coordinates></Point>
  </Placemark>
  <Placemark>
	<name>('Milwaukee', 'Armitage')</name>
      <Point><coordinates>-87.6887131685,41.917642049</coordinates></Point>
  </Placemark>
  <Placemark>
	<name>('67th Street', 'Jeffery')</name>
      <Point><coordinates>-87.5765513892,41.7733834602</coordinates></Point>
  </Placemark>
  <Placemark>
	<name>('Milwaukee/Grand (Blue Line)', 'Halsted')</name>
      <Point><coordinates>-87.647623925,41.89150053</coordinates></Point>
  </Placemark>
  <Placemark>
	<name>('Lincoln', 'Bryn Mawr')</name>
      <Point><coordinates>-87.6951311915,41.983148373</coordinates></Point>
  </Placemark>
  <Placemark>
	<name>('Lavergne', 'Archer')</name>
      <Point><coordinates>-87.7477435035,41.7979681375</coordinates></Point>
  </Placemark>
  <Placemark>
	<name>('Irving Park', 'Ashland')</name>
      <Point><coordinates>-87.66905676125,41.95420615125</coordinates></Point>
  </Placemark>
  <Placemark>
	<name>('Jackson', 'Austin Terminal')</name>
      <Point><coordinates>-87.774104816,41.876321843</coordinates></Point>
  </Placemark>
  <Placemark>
	<name>('Clark', 'North Ave')</name>
      <Point><coordinates>-87.6319453335,41.9112728635</coordinates></Point>
  </Placemark>
  <Placemark>
	<name>('Cottage Grove', '47th Street')</name>
      <Point><coordinates>-87.606460289,41.80961806925</coordinates></Point>
  </Placemark>
  <Placemark>
	<name>('Milwaukee', 'Irving Park/Cicero')</name>
      <Point><coordinates>-87.747328255,41.9534227185</coordinates></Point>
  </Placemark>
  <Placemark>
	<name>('Laramie', 'Washington')</name>
      <Point><coordinates>-87.7551375,41.8823485</coordinates></Point>
  </Placemark>
  <Placemark>
	<name>('4900 S State',)</name>
      <Point><coordinates>-87.625970558,41.805765244</coordinates></Point>
  </Placemark>
  <Placemark>
	<name>('Rosemont', 'Sheridan')</name>
      <Point><coordinates>-87.6555784995,41.996414</coordinates></Point>
  </Placemark>
  <Placemark>
	<name>('79th Street', 'Kedzie')</name>
      <Point><coordinates>-87.70239864525,41.74978918875</coordinates></Point>
  </Placemark>
  <Placemark>
	<name>('Pershing', 'Cottage Grove')</name>
      <Point><coordinates>-87.6069232255,41.823932692</coordinates></Point>
  </Placemark>
  <Placemark>
	<name>('Grand', 'Chicago')</name>
      <Point><coordinates>-87.69932197425,41.895495761</coordinates></Point>
  </Placemark>
  <Placemark>
	<name>('59th Street', 'Morgan')</name>
      <Point><coordinates>-87.6498267345,41.7869576435</coordinates></Point>
  </Placemark>
  <Placemark>
	<name>('Spaulding', 'Roosevelt')</name>
      <Point><coordinates>-87.707852673,41.866374425</coordinates></Point>
  </Placemark>
  <Placemark>
	<name>('75th Street', 'Stony Island')</name>
      <Point><coordinates>-87.5859421451667,41.7587571803333</coordinates></Point>
  </Placemark>
  <Placemark>
	<name>('Knox', '63rd Street')</name>
      <Point><coordinates>-87.738357758,41.778474162</coordinates></Point>
  </Placemark>
  <Placemark>
	<name>('Division', 'Grand')</name>
      <Point><coordinates>-87.7173676585,41.902570344</coordinates></Point>
  </Placemark>
  <Placemark>
	<name>('Clark', 'Wilson')</name>
      <Point><coordinates>-87.666699285,41.9651020805</coordinates></Point>
  </Placemark>
  <Placemark>
	<name>('53rd Street', 'State')</name>
      <Point><coordinates>-87.6257992325,41.7983114215</coordinates></Point>
  </Placemark>
  <Placemark>
	<name>('Ashland', 'Roscoe')</name>
      <Point><coordinates>-87.668762506,41.943319512</coordinates></Point>
  </Placemark>
  <Placemark>
	<name>('Cottage Grove', '95th Street')</name>
      <Point><coordinates>-87.6038733555,41.72199434775</coordinates></Point>
  </Placemark>
  <Placemark>
	<name>('Austin', 'Irving Park')</name>
      <Point><coordinates>-87.7767735415,41.953055103</coordinates></Point>
  </Placemark>
  <Placemark>
	<name>('Armitage', 'Damen')</name>
      <Point><coordinates>-87.67748663225,41.91775914525</coordinates></Point>
  </Placemark>
  <Placemark>
	<name>('Narragansett', 'Berteau')</name>
      <Point><coordinates>-87.7866903005,41.956453382</coordinates></Point>
  </Placemark>
  <Placemark>
	<name>('Harrison (Blue Line)', 'Kedzie')</name>
      <Point><coordinates>-87.705798333,41.873582622</coordinates></Point>
  </Placemark>
  <Placemark>
	<name>('Austin', 'Diversey')</name>
      <Point><coordinates>-87.775933958,41.931149383</coordinates></Point>
  </Placemark>
  <Placemark>
	<name>('Ashland', '14th Street')</name>
      <Point><coordinates>-87.6662940805,41.8631390405</coordinates></Point>
  </Placemark>
  <Placemark>
	<name>('Chicago', 'Halsted')</name>
      <Point><coordinates>-87.647724013,41.8964058115</coordinates></Point>
  </Placemark>
  <Placemark>
	<name>('Higgins', 'Nagle')</name>
      <Point><coordinates>-87.78774815425,41.976336663</coordinates></Point>
  </Placemark>
  <Placemark>
	<name>('Grand', 'Orleans')</name>
      <Point><coordinates>-87.636929023,41.891742143</coordinates></Point>
  </Placemark>
  <Placemark>
	<name>('Grace', 'Damen')</name>
      <Point><coordinates>-87.6786505,41.9505050005</coordinates></Point>
  </Placemark>
  <Placemark>
	<name>('Rosemont', 'Broadway')</name>
      <Point><coordinates>-87.66044469,41.996215957</coordinates></Point>
  </Placemark>
  <Placemark>
	<name>('33rd Street', 'Damen')</name>
      <Point><coordinates>-87.6753705005,41.8340215005</coordinates></Point>
  </Placemark>
  <Placemark>
	<name>('Arthur (Red Line)', 'Sheridan')</name>
      <Point><coordinates>-87.660600587,42.000382087</coordinates></Point>
  </Placemark>
  <Placemark>
	<name>('Pulaski', 'Lake (Green Line)')</name>
      <Point><coordinates>-87.725797729,41.885332063</coordinates></Point>
  </Placemark>
  <Placemark>
	<name>('Western', 'Granville')</name>
      <Point><coordinates>-87.689793254,41.9940883715</coordinates></Point>
  </Placemark>
  <Placemark>
	<name>('Milwaukee', 'Pulaski')</name>
      <Point><coordinates>-87.727208902,41.94114633275</coordinates></Point>
  </Placemark>
  <Placemark>
	<name>('Thorndale', 'Sheridan')</name>
      <Point><coordinates>-87.6553834995,41.9900940005</coordinates></Point>
  </Placemark>
  <Placemark>
	<name>('Arthington', 'Pulaski')</name>
      <Point><coordinates>-87.7253182625,41.869913982</coordinates></Point>
  </Placemark>
  <Placemark>
	<name>('Madison', 'Hamlin')</name>
      <Point><coordinates>-87.720718372,41.8808045325</coordinates></Point>
  </Placemark>
  <Placemark>
	<name>('Pershing', 'Normal')</name>
      <Point><coordinates>-87.638617028,41.8235561385</coordinates></Point>
  </Placemark>
  <Placemark>
	<name>('41st Street', 'Indiana')</name>
      <Point><coordinates>-87.621374585,41.820320231</coordinates></Point>
  </Placemark>
  <Placemark>
	<name>('Pulaski', '26th Street')</name>
      <Point><coordinates>-87.724663621,41.84432783225</coordinates></Point>
  </Placemark>
  <Placemark>
	<name>('Pulaski', 'Elston')</name>
      <Point><coordinates>-87.7277939175,41.95985733</coordinates></Point>
  </Placemark>
  <Placemark>
	<name>('Northwest Hwy', 'Ozark')</name>
      <Point><coordinates>-87.8201698855,42.005284004</coordinates></Point>
  </Placemark>
  <Placemark>
	<name>('Lawrence', 'Damen')</name>
      <Point><coordinates>-87.6792909985,41.9686677765</coordinates></Point>
  </Placemark>
  <Placemark>
	<name>('71st Street', 'Lafayette')</name>
      <Point><coordinates>-87.626645174,41.765324017</coordinates></Point>
  </Placemark>
  <Placemark>
	<name>('Milwaukee', 'Addison')</name>
      <Point><coordinates>-87.73555639225,41.94634229125</coordinates></Point>
  </Placemark>
  <Placemark>
	<name>('Milwaukee (Blue Line)', 'Ashland')</name>
      <Point><coordinates>-87.667365,41.903734</coordinates></Point>
  </Placemark>
  <Placemark>
	<name>('Goethe', 'LaSalle')</name>
      <Point><coordinates>-87.632983005,41.905746285</coordinates></Point>
  </Placemark>
  <Placemark>
	<name>('77th Street', 'Kedzie')</name>
      <Point><coordinates>-87.7025285,41.7534620005</coordinates></Point>
  </Placemark>
  <Placemark>
	<name>('Lake Shore', 'Schiller')</name>
      <Point><coordinates>-87.6257709995,41.9078145005</coordinates></Point>
  </Placemark>
  <Placemark>
	<name>('Narragansett', 'Wellington')</name>
      <Point><coordinates>-87.7858039995,41.934651</coordinates></Point>
  </Placemark>
  <Placemark>
	<name>('Blue Island', 'Damen')</name>
      <Point><coordinates>-87.6756139655,41.8485518615</coordinates></Point>
  </Placemark>
  <Placemark>
	<name>('Lake', 'Central')</name>
      <Point><coordinates>-87.765041556,41.887873563</coordinates></Point>
  </Placemark>
  <Placemark>
	<name>('Armitage', 'Ashland')</name>
      <Point><coordinates>-87.667794001,41.917828001</coordinates></Point>
  </Placemark>
  <Placemark>
	<name>('Elston', 'Kimball')</name>
      <Point><coordinates>-87.712779429,41.9491480925</coordinates></Point>
  </Placemark>
  <Placemark>
	<name>('Taylor', 'Damen')</name>
      <Point><coordinates>-87.6764771925,41.869109786</coordinates></Point>
  </Placemark>
  <Placemark>
	<name>('Milwaukee', 'Central Park')</name>
      <Point><coordinates>-87.7173090385,41.9351112195</coordinates></Point>
  </Placemark>
  <Placemark>
	<name>('Archer', 'Kostner')</name>
      <Point><coordinates>-87.7331601825,41.800185209</coordinates></Point>
  </Placemark>
  <Placemark>
	<name>('South Chicago/79th Street', 'Stony Island')</name>
      <Point><coordinates>-87.586042186,41.751673232</coordinates></Point>
  </Placemark>
  <Placemark>
	<name>('Madison', 'Cicero')</name>
      <Point><coordinates>-87.74515855925,41.8803950705</coordinates></Point>
  </Placemark>
  <Placemark>
	<name>('Lake Shore', 'Grace')</name>
      <Point><coordinates>-87.6450218195,41.952157676</coordinates></Point>
  </Placemark>
  <Placemark>
	<name>('Lincoln', 'Winnemac')</name>
      <Point><coordinates>-87.6913825,41.9729855</coordinates></Point>
  </Placemark>
  <Placemark>
	<name>('Irving Park', 'Keeler')</name>
      <Point><coordinates>-87.7327666435,41.9535904045</coordinates></Point>
  </Placemark>
  <Placemark>
	<name>('Armitage', 'Leclaire/Grand')</name>
      <Point><coordinates>-87.7528289645,41.916847033</coordinates></Point>
  </Placemark>
  <Placemark>
	<name>('North Ave', 'Western')</name>
      <Point><coordinates>-87.687216119,41.9102674225</coordinates></Point>
  </Placemark>
  <Placemark>
	<name>('Cermak', 'Halsted')</name>
      <Point><coordinates>-87.64656865425,41.85256910475</coordinates></Point>
  </Placemark>
  <Placemark>
	<name>('Irving Park', 'Melvina')</name>
      <Point><coordinates>-87.7817050265,41.9529832955</coordinates></Point>
  </Placemark>
  <Placemark>
	<name>('Normandy', 'Grand')</name>
      <Point><coordinates>-87.7924374355,41.9236229545</coordinates></Point>
  </Placemark>
  <Placemark>
	<name>('Armitage', 'Cicero')</name>
      <Point><coordinates>-87.74612121675,41.91699708475</coordinates></Point>
  </Placemark>
  <Placemark>
	<name>('Congress', 'Keeler')</name>
      <Point><coordinates>-87.730614088,41.874386206</coordinates></Point>
  </Placemark>
  <Placemark>
	<name>('51st Street', 'St. Lawrence')</name>
      <Point><coordinates>-87.6113041435,41.8021569285</coordinates></Point>
  </Placemark>
  <Placemark>
	<name>('Kostner', 'Chicago')</name>
      <Point><coordinates>-87.736016711,41.8951846265</coordinates></Point>
  </Placemark>
  <Placemark>
	<name>('California', 'Grand')</name>
      <Point><coordinates>-87.6964810005,41.8942455005</coordinates></Point>
  </Placemark>
  <Placemark>
	<name>('Rockwell', 'Fullerton')</name>
      <Point><coordinates>-87.69238824,41.9248672205</coordinates></Point>
  </Placemark>
  <Placemark>
	<name>('Diversey', 'Menard')</name>
      <Point><coordinates>-87.771057016,41.931203533</coordinates></Point>
  </Placemark>
  <Placemark>
	<name>('California', '79th Street')</name>
      <Point><coordinates>-87.692550231,41.749916876</coordinates></Point>
  </Placemark>
  <Placemark>
	<name>('Lawndale', '63rd Street')</name>
      <Point><coordinates>-87.715416975,41.7787694865</coordinates></Point>
  </Placemark>
  <Placemark>
	<name>('Cermak', 'Keeler')</name>
      <Point><coordinates>-87.7298168735,41.8514908</coordinates></Point>
  </Placemark>
  <Placemark>
	<name>('Lawrence', 'Elston')</name>
      <Point><coordinates>-87.739815669,41.968118617</coordinates></Point>
  </Placemark>
  <Placemark>
	<name>('Commercial', '96th Street')</name>
      <Point><coordinates>-87.5510545485,41.7209393695</coordinates></Point>
  </Placemark>
  <Placemark>
	<name>('110th Street', 'Kedzie')</name>
      <Point><coordinates>-87.700883531,41.693437985</coordinates></Point>
  </Placemark>
  <Placemark>
	<name>('Pulaski', '13th Street')</name>
      <Point><coordinates>-87.725101471,41.8643396935</coordinates></Point>
  </Placemark>
  <Placemark>
	<name>('Maypole', 'Homan')</name>
      <Point><coordinates>-87.7110830505,41.8835711415</coordinates></Point>
  </Placemark>
  <Placemark>
	<name>('Ewing', '105th Street')</name>
      <Point><coordinates>-87.535290278,41.704641785</coordinates></Point>
  </Placemark>
  <Placemark>
	<name>('Railroad Ave (Blue Line)', 'Austin')</name>
      <Point><coordinates>-87.774232,41.870322001</coordinates></Point>
  </Placemark>
  <Placemark>
	<name>('Cottage Grove', '106th Street')</name>
      <Point><coordinates>-87.6077468665,41.7019849275</coordinates></Point>
  </Placemark>
  <Placemark>
	<name>('107th Street', 'Avenue B')</name>
      <Point><coordinates>-87.52569948,41.700794259</coordinates></Point>
  </Placemark>
  <Placemark>
	<name>('George', 'Central')</name>
      <Point><coordinates>-87.7663,41.9330990005</coordinates></Point>
  </Placemark>
  <Placemark>
	<name>('Navy Pier Terminal',)</name>
      <Point><coordinates>-87.610075987,41.89249332325</coordinates></Point>
  </Placemark>
  <Placemark>
	<name>('Lake Shore', 'Scott')</name>
      <Point><coordinates>-87.6250860005,41.9048255005</coordinates></Point>
  </Placemark>
  <Placemark>
	<name>('Lake Shore', 'Brompton')</name>
      <Point><coordinates>-87.642931536,41.9476780035</coordinates></Point>
  </Placemark>
  <Placemark>
	<name>('Ohio', 'Cicero')</name>
      <Point><coordinates>-87.745679836,41.8914038725</coordinates></Point>
  </Placemark>
  <Placemark>
	<name>('State', 'Van Buren')</name>
      <Point><coordinates>-87.627653256,41.876920232</coordinates></Point>
  </Placemark>
  <Placemark>
	<name>('Argyle', 'Broadway')</name>
      <Point><coordinates>-87.659770254,41.973339921</coordinates></Point>
  </Placemark>
  <Placemark>
	<name>('Sheridan', 'North Shore')</name>
      <Point><coordinates>-87.660818106,42.003606287</coordinates></Point>
  </Placemark>
  <Placemark>
	<name>('47th Street', 'Kedzie')</name>
      <Point><coordinates>-87.704058017,41.808022414</coordinates></Point>
  </Placemark>
  <Placemark>
	<name>('Racine', 'Roosevelt')</name>
      <Point><coordinates>-87.656674278,41.86701109125</coordinates></Point>
  </Placemark>
  <Placemark>
	<name>('47th Street', 'State')</name>
      <Point><coordinates>-87.626198153,41.80915137975</coordinates></Point>
  </Placemark>
  <Placemark>
	<name>('Fulton', 'Central')</name>
      <Point><coordinates>-87.7650605465,41.8857143545</coordinates></Point>
  </Placemark>
  <Placemark>
	<name>('Division', 'Damen')</name>
      <Point><coordinates>-87.677095196,41.903206768</coordinates></Point>
  </Placemark>
  <Placemark>
	<name>('Cottage Grove', '59th Street')</name>
      <Point><coordinates>-87.606086701,41.7878438185</coordinates></Point>
  </Placemark>
  <Placemark>
	<name>('Loomis', 'Blue Island')</name>
      <Point><coordinates>-87.661232667,41.857622938</coordinates></Point>
  </Placemark>
  <Placemark>
	<name>('Michigan', '8th Street')</name>
      <Point><coordinates>-87.624169001,41.87189642</coordinates></Point>
  </Placemark>
  <Placemark>
	<name>('Bryn Mawr', 'Nagle')</name>
      <Point><coordinates>-87.787713067,41.982905636</coordinates></Point>
  </Placemark>
  <Placemark>
	<name>('Clark', '18th Street')</name>
      <Point><coordinates>-87.6302196835,41.857638468</coordinates></Point>
  </Placemark>
  <Placemark>
	<name>('Foster', 'Nagle')</name>
      <Point><coordinates>-87.787872941,41.975669725</coordinates></Point>
  </Placemark>
  <Placemark>
	<name>('Racine', '81st Street')</name>
      <Point><coordinates>-87.6536403605,41.746859968</coordinates></Point>
  </Placemark>
  <Placemark>
	<name>('Dearborn', 'Hubbard')</name>
      <Point><coordinates>-87.629500288,41.889937581</coordinates></Point>
  </Placemark>
  <Placemark>
	<name>('Wellington', 'Central')</name>
      <Point><coordinates>-87.76636724,41.9348108475</coordinates></Point>
  </Placemark>
  <Placemark>
	<name>('Catherine', 'Cumberland')</name>
      <Point><coordinates>-87.8366019995,41.9772055</coordinates></Point>
  </Placemark>
  <Placemark>
	<name>('Western', 'Fullerton')</name>
      <Point><coordinates>-87.6877848005,41.92497971975</coordinates></Point>
  </Placemark>
  <Placemark>
	<name>('California', 'Diversey')</name>
      <Point><coordinates>-87.69767282425,41.9321312105</coordinates></Point>
  </Placemark>
  <Placemark>
	<name>('Western', '16th Street')</name>
      <Point><coordinates>-87.6858480585,41.859511984</coordinates></Point>
  </Placemark>
  <Placemark>
	<name>('Madison', 'Austin')</name>
      <Point><coordinates>-87.7746022883333,41.880139073</coordinates></Point>
  </Placemark>
  <Placemark>
	<name>('Broadway (Red Line)', 'Wilson')</name>
      <Point><coordinates>-87.6579285215,41.965391905</coordinates></Point>
  </Placemark>
  <Placemark>
	<name>('Diversey', 'Narragansett')</name>
      <Point><coordinates>-87.7856910425,41.931003989</coordinates></Point>
  </Placemark>
  <Placemark>
	<name>('California', 'Logan')</name>
      <Point><coordinates>-87.6975512943333,41.9285668886667</coordinates></Point>
  </Placemark>
  <Placemark>
	<name>('Lafayette', '93rd Street')</name>
      <Point><coordinates>-87.625188001,41.725543001</coordinates></Point>
  </Placemark>
  <Placemark>
	<name>('Sheridan', 'Granville')</name>
      <Point><coordinates>-87.6555225,41.994597</coordinates></Point>
  </Placemark>
  <Placemark>
	<name>('95th Street', 'Ashland')</name>
      <Point><coordinates>-87.6627668524,41.7212785284</coordinates></Point>
  </Placemark>
  <Placemark>
	<name>('Washington', 'Halsted')</name>
      <Point><coordinates>-87.646694946,41.883070801</coordinates></Point>
  </Placemark>
  <Placemark>
	<name>('Talman', '103rd Street')</name>
      <Point><coordinates>-87.68804375,41.7063587475</coordinates></Point>
  </Placemark>
  <Placemark>
	<name>('Michigan', '51st Street')</name>
      <Point><coordinates>-87.622492663,41.802034449</coordinates></Point>
  </Placemark>
  <Placemark>
	<name>('51st Street', 'Halsted')</name>
      <Point><coordinates>-87.64535833775,41.8015037585</coordinates></Point>
  </Placemark>
  <Placemark>
	<name>('Racine', 'Addison')</name>
      <Point><coordinates>-87.6589721985,41.9471512665</coordinates></Point>
  </Placemark>
  <Placemark>
	<name>('California', '55th Street')</name>
      <Point><coordinates>-87.693792099,41.7936799255</coordinates></Point>
  </Placemark>
  <Placemark>
	<name>('87th Street', 'Aberdeen')</name>
      <Point><coordinates>-87.6509125055,41.7359802725</coordinates></Point>
  </Placemark>
  <Placemark>
	<name>('Oak Park', 'Belmont')</name>
      <Point><coordinates>-87.795689035,41.9381701685</coordinates></Point>
  </Placemark>
  <Placemark>
	<name>('95th Street', 'Loomis')</name>
      <Point><coordinates>-87.657565412,41.7212752055</coordinates></Point>
  </Placemark>
  <Placemark>
	<name>('LaSalle', 'Chicago')</name>
      <Point><coordinates>-87.63282285175,41.89661182325</coordinates></Point>
  </Placemark>
  <Placemark>
	<name>('Greenwood', '87th Street')</name>
      <Point><coordinates>-87.59728196,41.73674483</coordinates></Point>
  </Placemark>
  <Placemark>
	<name>('900 W Taylor',)</name>
      <Point><coordinates>-87.6486455,41.8695690005</coordinates></Point>
  </Placemark>
  <Placemark>
	<name>('Clark', 'Harrison')</name>
      <Point><coordinates>-87.6306959543333,41.8744460356667</coordinates></Point>
  </Placemark>
  <Placemark>
	<name>('California', 'Pratt')</name>
      <Point><coordinates>-87.699822,42.0048405</coordinates></Point>
  </Placemark>
  <Placemark>
	<name>('Addison', 'Kimball')</name>
      <Point><coordinates>-87.712708738,41.9464046645</coordinates></Point>
  </Placemark>
  <Placemark>
	<name>('Grand', 'Western')</name>
      <Point><coordinates>-87.6866962985,41.890828334</coordinates></Point>
  </Placemark>
  <Placemark>
	<name>('Hollywood', 'Ashland')</name>
      <Point><coordinates>-87.669735889,41.98525531</coordinates></Point>
  </Placemark>
  <Placemark>
	<name>('Armitage', 'Western')</name>
      <Point><coordinates>-87.6874108555,41.917568099</coordinates></Point>
  </Placemark>
  <Placemark>
	<name>('Division (Red Line)', 'Clark')</name>
      <Point><coordinates>-87.6314485,41.9039025005</coordinates></Point>
  </Placemark>
  <Placemark>
	<name>('Cottage Grove', '82nd Street')</name>
      <Point><coordinates>-87.60505253,41.745845766</coordinates></Point>
  </Placemark>
  <Placemark>
	<name>('California', '24th Boulevard')</name>
      <Point><coordinates>-87.695339173,41.8480844805</coordinates></Point>
  </Placemark>
  <Placemark>
	<name>('Austin', 'Lake')</name>
      <Point><coordinates>-87.7749212045,41.888138268</coordinates></Point>
  </Placemark>
  <Placemark>
	<name>('Cicero', 'Palmer')</name>
      <Point><coordinates>-87.746202884,41.9206258865</coordinates></Point>
  </Placemark>
  <Placemark>
	<name>('Cicero', 'School')</name>
      <Point><coordinates>-87.7469167045,41.9406407365</coordinates></Point>
  </Placemark>
  <Placemark>
	<name>('Pulaski', 'Marquette Rd')</name>
      <Point><coordinates>-87.722575018,41.7713673785</coordinates></Point>
  </Placemark>
  <Placemark>
	<name>('Michigan', '100th Street')</name>
      <Point><coordinates>-87.620121007,41.712535464</coordinates></Point>
  </Placemark>
  <Placemark>
	<name>('Wallace', '26th Street')</name>
      <Point><coordinates>-87.64153655,41.8452713365</coordinates></Point>
  </Placemark>
  <Placemark>
	<name>('California', '31st Street')</name>
      <Point><coordinates>-87.695030596,41.837419127</coordinates></Point>
  </Placemark>